Volcano Number,Volcano Name,Country,Volcanic Region Group,Volcanic Region,Primary Volcano Type,Activity Evidence,Last Known Eruption CE,Latitude,Longitude,Elevation (m),Tectonic Setting,Dominant Rock Type
305011,Arxan-Chaihe,China,Eastern Asia Volcanic Regions,Central East Asia Volcanic Province,Volcanic field,Eruption Dated,0,47.45,120.8,1677,Intraplate / Continental crust (>25 km),Basalt / Picro-Basalt
383040,Gran Canaria,Spain,Northern Africa Volcanic Regions,Canary Volcanic Province,Fissure vent(s),Eruption Dated,40,28,-15.58,1950,Intraplate / Intermediate crust (15-25 km),Trachybasalt / Tephrite Basanite
214010,Elbrus,Russia,Arabia-Central Asia Volcanic Regions,Caucasus Volcanic Province,Stratovolcano,Eruption Dated,50,43.351,42.442,5642,Intraplate / Continental crust (>25 km),Dacite
271031,Leonard Range,Philippines,Western Pacific Volcanic Regions,Eastern Philippine Volcanic Arc,Stratovolcano,Eruption Dated,80,7.382,126.047,1080,Subduction zone / Continental crust (>25 km),Andesite / Basaltic Andesite
212030,Milos,Greece,European Volcanic Regions,Hellenic Volcanic Arc,Stratovolcano(es),Eruption Dated,140,36.699,24.439,751,Subduction zone / Continental crust (>25 km),Rhyolite
371050,Hengill,Iceland,Atlantic Ocean Volcanic Regions,Iceland Neovolcanic Rift Volcanic Province,Crater rows,Eruption Dated,150,64.083,-21.416,803,Rift zone / Oceanic crust (< 15 km),Basalt / Picro-Basalt
360030,Liamuiga,Saint Kitts and Nevis,Middle America-Caribbean Volcanic Regions,Lesser Antilles Volcanic Arc,Stratovolcano,Eruption Dated,160,17.37,-62.8,1156,Subduction zone / Oceanic crust (< 15 km),Andesite / Basaltic Andesite
300170,Uzon,Russia,Northwest Pacific Volcanic Regions,Eastern Kamchatka Volcanic Arc,Caldera(s),Eruption Dated,200,54.4885,159.9741,1617,Subduction zone / Continental crust (>25 km),Andesite / Basaltic Andesite
358052,Melimoyu,Chile,South America Volcanic Regions,Southern Andean Volcanic Arc,Stratovolcano,Eruption Dated,200,-44.08,-72.88,2400,Subduction zone / Continental crust (>25 km),Andesite / Basaltic Andesite
370010,Snaefellsjokull,Iceland,Atlantic Ocean Volcanic Regions,Iceland Neovolcanic Rift Volcanic Province,Stratovolcano,Eruption Dated,200,64.8,-23.783,1446,Rift zone / Oceanic crust (< 15 km),
323200,Salton Buttes,United States,Eastern Pacific Volcanic Regions,Gulf of California Rift Volcanic Province,Lava dome(s),Eruption Dated,210,33.197,-115.616,-40,Rift zone / Continental crust (>25 km),Rhyolite
360020,"Quill, The",Netherlands,Middle America-Caribbean Volcanic Regions,Lesser Antilles Volcanic Arc,Stratovolcano,Eruption Dated,250,17.478,-62.96,601,Subduction zone / Oceanic crust (< 15 km),Andesite / Basaltic Andesite
357121,Quetrupillan,Chile,South America Volcanic Regions,Southern Andean Volcanic Arc,Stratovolcano,Eruption Dated,255,-39.496,-71.722,2360,Subduction zone / Continental crust (>25 km),Andesite / Basaltic Andesite
241070,Taupo,New Zealand,Tonga-Kermadec Volcanic Regions,Taupo Volcanic Arc,Caldera,Eruption Dated,260,-38.7811,175.893,760,Subduction zone / Continental crust (>25 km),Rhyolite
352011,Pululahua,Ecuador,South America Volcanic Regions,Northern Andean Volcanic Arc,Caldera,Eruption Dated,290,0.0464,-78.49,3360,Subduction zone / Continental crust (>25 km),Dacite
355012,Parinacota,Chile-Bolivia,South America Volcanic Regions,Central Andean Volcanic Arc,Stratovolcano,Eruption Dated,290,-18.166,-69.142,6336,Subduction zone / Continental crust (>25 km),Andesite / Basaltic Andesite
300082,Tolmachev Dol,Russia,Northwest Pacific Volcanic Regions,Kuril Volcanic Arc,Pyroclastic cone(s),Eruption Dated,300,52.63,157.58,1021,Subduction zone / Continental crust (>25 km),Basalt / Picro-Basalt
314060,Imuruk Lake,United States,North America Volcanic Regions,Northern Alaska-Bering Sea Volcanic Province,Volcanic field,Eruption Dated,300,65.517,-163.45,610,Intraplate / Continental crust (>25 km),Basalt / Picro-Basalt
358023,Hornopiren,Chile,South America Volcanic Regions,Southern Andean Volcanic Arc,Stratovolcano,Eruption Dated,340,-41.874,-72.431,1572,Subduction zone / Continental crust (>25 km),Andesite / Basaltic Andesite
300022,Diky Greben,Russia,Northwest Pacific Volcanic Regions,Kuril Volcanic Arc,Lava dome(s),Eruption Dated,350,51.452,156.978,1040,Subduction zone / Continental crust (>25 km),Dacite
305050,Longgang Group,China,Eastern Asia Volcanic Regions,Central East Asia Volcanic Province,Volcanic field,Eruption Dated,350,42.33,126.5,1000,Intraplate / Continental crust (>25 km),Basalt / Picro-Basalt
300121,Veer,Russia,Northwest Pacific Volcanic Regions,Eastern Kamchatka Volcanic Arc,Pyroclastic cone(s),Eruption Dated,390,53.7525,158.4478,520,Subduction zone / Continental crust (>25 km),Basalt / Picro-Basalt
341080,Chichinautzin,Mexico,Middle America-Caribbean Volcanic Regions,Trans-Mexican Volcanic Arc,Volcanic field,Eruption Dated,399,19.139,-99.16,3938,Subduction zone / Continental crust (>25 km),Andesite / Basaltic Andesite
241010,Kaikohe-Bay of Islands,New Zealand,Tonga-Kermadec Volcanic Regions,Western North Island Volcanic Province,Volcanic field,Eruption Dated,400,-35.3,173.9,388,Subduction zone / Continental crust (>25 km),Trachybasalt / Tephrite Basanite
322070,Three Sisters,United States,North America Volcanic Regions,High Cascades Volcanic Arc,Complex,Eruption Dated,439,44.133,-121.767,3159,Subduction zone / Continental crust (>25 km),Andesite / Basaltic Andesite
244020,Tutuila,United States,Southern Pacific Volcanic Regions,Samoan Hotspot Volcano Group,Tuff cone(s),Eruption Dated,440,-14.2903,-170.7019,653,Subduction zone / Oceanic crust (< 15 km),Basalt / Picro-Basalt
322060,Belknap,United States,North America Volcanic Regions,High Cascades Volcanic Arc,Shield(s),Eruption Dated,475,44.285,-121.8423,2094,Subduction zone / Continental crust (>25 km),Andesite / Basaltic Andesite
231090,"Arhab, Harra of",Yemen,Arabia-Central Asia Volcanic Regions,Southwest Arabia Volcanic Province,Volcanic field,Eruption Observed,500,15.6025,44.0978,3100,Intraplate / Continental crust (>25 km),Trachybasalt / Tephrite Basanite
283122,Harunasan,Japan,Northwest Pacific Volcanic Regions,Northeast Japan Volcanic Arc,Stratovolcano,Eruption Dated,550,36.477,138.851,1449,Subduction zone / Continental crust (>25 km),Andesite / Basaltic Andesite
352071,Chimborazo,Ecuador,South America Volcanic Regions,Northern Andean Volcanic Arc,Stratovolcano,Eruption Dated,550,-1.469,-78.817,6261,Subduction zone / Continental crust (>25 km),Andesite / Basaltic Andesite
357122,Lanin,Chile-Argentina,South America Volcanic Regions,Southern Andean Volcanic Arc,Stratovolcano,Eruption Dated,560,-39.637,-71.502,3776,Subduction zone / Continental crust (>25 km),Trachyandesite / Basaltic Trachyandesite
281032,Tatun Volcanic Group,Taiwan,Western Pacific Volcanic Regions,Ryukyu Volcanic Arc,Lava dome(s),Eruption Dated,648,25.178,121.553,1120,Subduction zone / Continental crust (>25 km),Andesite / Basaltic Andesite
231060,"Khaybar, Harrat",Saudi Arabia,Arabia-Central Asia Volcanic Regions,Western Arabia Volcanic Province,Volcanic field,Eruption Observed,650,25.5,40,2093,Intraplate / Continental crust (>25 km),Basalt / Picro-Basalt
283002,Sanbesan,Japan,Western Pacific Volcanic Regions,Nankai Volcanic Arc,Stratovolcano,Eruption Dated,650,35.141,132.622,1126,Subduction zone / Continental crust (>25 km),Dacite
352003,Cuicocha,Ecuador,South America Volcanic Regions,Northern Andean Volcanic Arc,Caldera,Eruption Dated,650,0.308,-78.364,3246,Subduction zone / Continental crust (>25 km),Dacite
322030,Blue Lake Crater,United States,North America Volcanic Regions,High Cascades Volcanic Arc,Maar,Eruption Dated,680,44.4125,-121.7686,1136,Subduction zone / Continental crust (>25 km),Basalt / Picro-Basalt
322110,Newberry,United States,North America Volcanic Regions,High Cascades Volcanic Arc,Shield,Eruption Dated,690,43.722,-121.229,2434,Subduction zone / Continental crust (>25 km),Andesite / Basaltic Andesite
355130,"Ojos del Salado, Nevados",Chile-Argentina,South America Volcanic Regions,Central Andean Volcanic Arc,Stratovolcano,Eruption Dated,750,-27.109,-68.541,6879,Subduction zone / Continental crust (>25 km),Dacite
283200,Naruko,Japan,Northwest Pacific Volcanic Regions,Northeast Japan Volcanic Arc,Caldera,Eruption Observed,837,38.729,140.734,470,Subduction zone / Continental crust (>25 km),Rhyolite
284030,Kozushima,Japan,Northwest Pacific Volcanic Regions,Izu Volcanic Arc,Lava dome(s),Eruption Observed,838,34.219,139.153,572,Subduction zone / Oceanic crust (< 15 km),Rhyolite
315030,Churchill,United States,North America Volcanic Regions,Wrangell Volcanic Arc,Stratovolcano,Eruption Dated,847,61.38,-141.75,5005,Intraplate / Continental crust (>25 km),Dacite
225060,Bayuda Volcanic Field,Sudan,Northern Africa Volcanic Regions,Darfur-Bayuda Volcanic Province,Volcanic field,Eruption Dated,850,18.33,32.75,670,Intraplate / Continental crust (>25 km),Trachybasalt / Tephrite Basanite
300551,Kinenin,Russia,Northwest Pacific Volcanic Regions,Central Kamchatka Volcanic Arc,Maar,Eruption Dated,850,57.35,160.97,583,Subduction zone / Continental crust (>25 km),Basalt / Picro-Basalt
282130,Yufu-Tsurumi,Japan,Western Pacific Volcanic Regions,Nankai Volcanic Arc,Lava dome(s),Eruption Observed,867,33.282,131.39,1584,Subduction zone / Continental crust (>25 km),Andesite / Basaltic Andesite
284180,Alamagan,United States,Northwest Pacific Volcanic Regions,Mariana Volcanic Arc,Stratovolcano,Eruption Dated,870,17.6,145.83,744,Subduction zone / Crustal thickness unknown,Andesite / Basaltic Andesite
282070,Ata,Japan,Western Pacific Volcanic Regions,Ryukyu Volcanic Arc,Caldera(s),Eruption Observed,885,31.22,130.57,924,Subduction zone / Continental crust (>25 km),Andesite / Basaltic Andesite
284020,Niijima,Japan,Northwest Pacific Volcanic Regions,Izu Volcanic Arc,Lava dome(s),Eruption Observed,886,34.397,139.27,432,Subduction zone / Oceanic crust (< 15 km),Rhyolite
283271,Towada,Japan,Northwest Pacific Volcanic Regions,Northeast Japan Volcanic Arc,Caldera,Eruption Observed,915,40.51,140.88,1011,Subduction zone / Continental crust (>25 km),Andesite / Basaltic Andesite
360100,"Trois Pitons, Morne",Dominica,Middle America-Caribbean Volcanic Regions,Lesser Antilles Volcanic Arc,Complex,Eruption Dated,920,15.37,-61.33,1387,Subduction zone / Oceanic crust (< 15 km),Andesite / Basaltic Andesite
252100,Hargy,Papua New Guinea,Southwest Pacific Volcanic Regions,Bismarck Volcanic Arc,Stratovolcano,Eruption Dated,950,-5.33,151.1,1148,Subduction zone / Continental crust (>25 km),Dacite
300220,Komarov,Russia,Northwest Pacific Volcanic Regions,Eastern Kamchatka Volcanic Arc,Stratovolcano,Eruption Dated,950,55.033,160.725,2065,Subduction zone / Continental crust (>25 km),Basalt / Picro-Basalt
320060,Edziza,Canada,North America Volcanic Regions,Northern Cordilleran Volcanic Province,Stratovolcano,Eruption Dated,950,57.72,-130.63,2786,Intraplate / Continental crust (>25 km),Trachyte / Trachydacite
321040,Adams,United States,North America Volcanic Regions,High Cascades Volcanic Arc,Stratovolcano,Eruption Dated,950,46.206,-121.49,3742,Subduction zone / Continental crust (>25 km),Andesite / Basaltic Andesite
322020,Jefferson,United States,North America Volcanic Regions,High Cascades Volcanic Arc,Stratovolcano,Eruption Dated,950,44.674,-121.8,3199,Subduction zone / Continental crust (>25 km),Andesite / Basaltic Andesite
371080,Oddnyjarhnjukur-Langjokull,Iceland,Atlantic Ocean Volcanic Regions,Iceland Neovolcanic Rift Volcanic Province,Fissure vent(s),Eruption Dated,950,64.85,-19.7,1100,Rift zone / Oceanic crust (< 15 km),Basalt / Picro-Basalt
370030,Ljosufjoll,Iceland,Atlantic Ocean Volcanic Regions,Iceland Neovolcanic Rift Volcanic Province,Volcanic field,Eruption Dated,960,64.9,-22.483,1063,Rift zone / Oceanic crust (< 15 km),Basalt / Picro-Basalt
231040,"Lunayyir, Harrat",Saudi Arabia,Arabia-Central Asia Volcanic Regions,Western Arabia Volcanic Province,Volcanic field,Eruption Observed,1000,25.17,37.75,1370,Intraplate / Continental crust (>25 km),Basalt / Picro-Basalt
306040,Halla,South Korea,Eastern Asia Volcanic Regions,Central East Asia Volcanic Province,Shield,Eruption Observed,1007,33.361,126.53,1919,Intraplate / Continental crust (>25 km),Basalt / Picro-Basalt
327040,Markagunt Plateau,United States,North America Volcanic Regions,Basin and Range Volcanic Province,Volcanic field,Evidence Credible,1050,37.58,-112.67,2840,Rift zone / Continental crust (>25 km),Basalt / Picro-Basalt
323020,Medicine Lake,United States,North America Volcanic Regions,High Cascades Volcanic Arc,Shield,Eruption Dated,1060,41.611,-121.554,2412,Subduction zone / Continental crust (>25 km),Basalt / Picro-Basalt
344092,Nejapa-Miraflores,Nicaragua,Middle America-Caribbean Volcanic Regions,Central America Volcanic Arc,Fissure vent(s),Eruption Dated,1060,12.12,-86.32,360,Subduction zone / Continental crust (>25 km),Basalt / Picro-Basalt
329020,San Francisco Volcanic Field,United States,North America Volcanic Regions,Basin and Range Volcanic Province,Volcanic field,Eruption Dated,1075,35.347,-111.678,3850,Rift zone / Continental crust (>25 km),Basalt / Picro-Basalt
285081,Mashu,Japan,Northwest Pacific Volcanic Regions,Kuril Volcanic Arc,Caldera,Eruption Dated,1080,43.572,144.561,857,Subduction zone / Continental crust (>25 km),Andesite / Basaltic Andesite
358022,Yate,Chile,South America Volcanic Regions,Southern Andean Volcanic Arc,Stratovolcano,Eruption Dated,1090,-41.755,-72.396,2187,Subduction zone / Continental crust (>25 km),Andesite / Basaltic Andesite
329010,Uinkaret Field,United States,North America Volcanic Regions,Basin and Range Volcanic Province,Volcanic field,Eruption Dated,1100,36.38,-113.13,1555,Rift zone / Continental crust (>25 km),Trachybasalt / Tephrite Basanite
341096,Cofre de Perote,Mexico,Middle America-Caribbean Volcanic Regions,Trans-Mexican Volcanic Arc,Compound,Eruption Dated,1150,19.492,-97.15,4282,Subduction zone / Continental crust (>25 km),Andesite / Basaltic Andesite
353011,Ecuador,Ecuador,Eastern Pacific Volcanic Regions,Galapagos Hotspot Volcano Group,Shield,Eruption Dated,1150,-0.02,-91.546,790,Rift zone / Oceanic crust (< 15 km),Basalt / Picro-Basalt
351040,Machin,Colombia,South America Volcanic Regions,Northern Andean Volcanic Arc,Stratovolcano,Eruption Dated,1180,4.487,-75.389,2749,Subduction zone / Continental crust (>25 km),Dacite
282043,Kuchinoshima,Japan,Western Pacific Volcanic Regions,Ryukyu Volcanic Arc,Stratovolcano(es),Eruption Dated,1190,29.968,129.926,628,Subduction zone / Oceanic crust (< 15 km),Andesite / Basaltic Andesite
283031,Yokodake,Japan,Northwest Pacific Volcanic Regions,Northeast Japan Volcanic Arc,Stratovolcano(es),Eruption Dated,1200,36.087,138.32,2480,Subduction zone / Continental crust (>25 km),Andesite / Basaltic Andesite
313050,Hayes,United States,North America Volcanic Regions,Alaska Peninsula Volcanic Arc,Stratovolcano,Eruption Dated,1200,61.64,-152.411,3034,Subduction zone / Continental crust (>25 km),Dacite
268061,Kie Matubu,Indonesia,Western Pacific Volcanic Regions,Halmahera Volcanic Arc,Stratovolcano,Eruption Dated,1210,0.6623,127.4029,1713,Subduction zone / Oceanic crust (< 15 km),Andesite / Basaltic Andesite
211042,Lipari,Italy,European Volcanic Regions,Aeolian Volcanic Arc,Stratovolcano(es),Eruption Dated,1230,38.49,14.933,590,Subduction zone / Continental crust (>25 km),Rhyolite
357111,Sollipulli,Chile,South America Volcanic Regions,Southern Andean Volcanic Arc,Caldera,Eruption Dated,1240,-38.97,-71.52,2282,Subduction zone / Continental crust (>25 km),Andesite / Basaltic Andesite
222166,Rungwe,Tanzania,Eastern Africa Volcanic Regions,Rukwa Rift Volcanic Province,Stratovolcano,Eruption Dated,1250,-9.135,33.668,2953,Rift zone / Continental crust (>25 km),Trachyte / Trachydacite
300550,Gorny Institute,Russia,Northwest Pacific Volcanic Regions,Central Kamchatka Volcanic Arc,Stratovolcano,Eruption Dated,1250,57.33,160.2,2125,Subduction zone / Continental crust (>25 km),Andesite / Basaltic Andesite
323010,Shasta,United States,North America Volcanic Regions,High Cascades Volcanic Arc,Stratovolcano,Eruption Observed,1250,41.409,-122.193,4317,Subduction zone / Continental crust (>25 km),Andesite / Basaltic Andesite
231160,"Sawad, Harra Es-",Yemen,Arabia-Central Asia Volcanic Regions,Southwest Arabia Volcanic Province,Volcanic field,Eruption Observed,1253,13.58,46.12,1737,Intraplate / Continental crust (>25 km),Trachybasalt / Tephrite Basanite
231070,"Rahat, Harrat",Saudi Arabia,Arabia-Central Asia Volcanic Regions,Western Arabia Volcanic Province,Volcanic field,Eruption Observed,1256,23.08,39.78,1744,Intraplate / Continental crust (>25 km),Basalt / Picro-Basalt
323150,Mammoth Mountain,United States,North America Volcanic Regions,Basin and Range Volcanic Province,Lava dome(s),Eruption Dated,1260,37.631,-119.032,3369,Rift zone / Continental crust (>25 km),Trachyte / Trachydacite
341062,Jocotitlan,Mexico,Middle America-Caribbean Volcanic Regions,Trans-Mexican Volcanic Arc,Stratovolcano,Eruption Dated,1270,19.73,-99.758,3900,Subduction zone / Continental crust (>25 km),Dacite
360110,"Plat Pays, Morne",Dominica,Middle America-Caribbean Volcanic Regions,Lesser Antilles Volcanic Arc,Stratovolcano,Eruption Dated,1270,15.255,-61.341,940,Subduction zone / Oceanic crust (< 15 km),Dacite
352060,Quilotoa,Ecuador,South America Volcanic Regions,Northern Andean Volcanic Arc,Caldera,Eruption Dated,1280,-0.8592,-78.9044,3914,Subduction zone / Continental crust (>25 km),Dacite
271020,Matutum,Philippines,Western Pacific Volcanic Regions,Mindanao Volcanic Province,Stratovolcano,Eruption Dated,1290,6.3604,125.0765,2262,Subduction zone / Continental crust (>25 km),Andesite / Basaltic Andesite
327050,Black Rock Desert,United States,North America Volcanic Regions,Basin and Range Volcanic Province,Volcanic field,Eruption Dated,1290,38.97,-112.5,1800,Rift zone / Continental crust (>25 km),Basalt / Picro-Basalt
211030,Ischia,Italy,European Volcanic Regions,Italian Peninsula Volcanic Provinces,Complex,Eruption Observed,1302,40.73,13.897,789,Subduction zone / Continental crust (>25 km),Trachyte / Trachydacite
285080,Kussharo,Japan,Northwest Pacific Volcanic Regions,Kuril Volcanic Arc,Caldera,Eruption Dated,1320,43.615,144.427,574,Subduction zone / Continental crust (>25 km),Dacite
371030,Krysuvik-Trolladyngja,Iceland,Atlantic Ocean Volcanic Regions,Iceland Neovolcanic Rift Volcanic Province,Crater rows,Eruption Observed,1340,63.917,-22.067,360,Rift zone / Oceanic crust (< 15 km),Basalt / Picro-Basalt
371040,Brennisteinsfjoll,Iceland,Atlantic Ocean Volcanic Regions,Iceland Neovolcanic Rift Volcanic Province,Crater rows,Eruption Observed,1341,63.933,-21.783,610,Rift zone / Oceanic crust (< 15 km),Basalt / Picro-Basalt
253060,Dawson Strait Group,Papua New Guinea,Southwest Pacific Volcanic Regions,Trobriand Volcanic Arc,Volcanic field,Eruption Dated,1350,-9.62,150.88,500,Subduction zone / Continental crust (>25 km),Rhyolite
273060,San Pablo Volcanic Field,Philippines,Western Pacific Volcanic Regions,Luzon Volcanic Arc,Volcanic field,Eruption Dated,1350,14.12,121.3,1090,Subduction zone / Continental crust (>25 km),Trachyandesite / Basaltic Trachyandesite
300122,Kostakan,Russia,Northwest Pacific Volcanic Regions,Eastern Kamchatka Volcanic Arc,Pyroclastic cone(s),Eruption Dated,1350,53.833,158.052,1150,Subduction zone / Continental crust (>25 km),Basalt / Picro-Basalt
241140,Healy,New Zealand,Tonga-Kermadec Volcanic Regions,Southern Kermadec Volcanic Arc,Stratovolcano,Eruption Dated,1360,-35.004,178.973,-980,Subduction zone / Oceanic crust (< 15 km),Dacite
323120,Mono-Inyo Craters,United States,North America Volcanic Regions,Basin and Range Volcanic Province,Lava dome(s),Eruption Dated,1380,37.804,-119.029,2796,Rift zone / Continental crust (>25 km),Rhyolite
241020,Auckland Volcanic Field,New Zealand,Tonga-Kermadec Volcanic Regions,Western North Island Volcanic Province,Volcanic field,Eruption Dated,1446,-36.89,174.81,260,Intraplate / Continental crust (>25 km),Trachybasalt / Tephrite Basanite
222164,Ngozi,Tanzania,Eastern Africa Volcanic Regions,Rukwa Rift Volcanic Province,Caldera,Eruption Dated,1450,-9.0036,33.552,2614,Rift zone / Continental crust (>25 km),Trachyte / Trachydacite
321030,Rainier,United States,North America Volcanic Regions,High Cascades Volcanic Arc,Stratovolcano,Eruption Dated,1450,46.853,-121.76,4392,Subduction zone / Continental crust (>25 km),Andesite / Basaltic Andesite
274060,Iraya,Philippines,Western Pacific Volcanic Regions,Luzon Volcanic Arc,Stratovolcano,Eruption Observed,1454,20.469,122.01,1009,Subduction zone / Crustal thickness unknown,Andesite / Basaltic Andesite
372050,Torfajokull,Iceland,Atlantic Ocean Volcanic Regions,Iceland Neovolcanic Rift Volcanic Province,Stratovolcano,Eruption Observed,1477,63.892,-19.122,1280,Rift zone / Oceanic crust (< 15 km),Rhyolite
354004,Andahua-Orcopampa,Peru,South America Volcanic Regions,Central Andean Volcanic Arc,Volcanic field,Eruption Dated,1490,-15.42,-72.33,4713,Subduction zone / Continental crust (>25 km),Trachyandesite / Basaltic Trachyandesite
300272,Khangar,Russia,Northwest Pacific Volcanic Regions,Central Kamchatka Volcanic Arc,Stratovolcano,Eruption Dated,1500,54.761,157.407,1967,Subduction zone / Continental crust (>25 km),Dacite
385050,Ascension,United Kingdom,Atlantic Ocean Volcanic Regions,Central Mid-Atlantic Rift Volcanic Province,Stratovolcano,Eruption Dated,1508,-7.95,-14.37,858,Rift zone / Oceanic crust (< 15 km),Basalt / Picro-Basalt
211010,Campi Flegrei,Italy,European Volcanic Regions,Italian Peninsula Volcanic Provinces,Caldera,Eruption Observed,1538,40.827,14.139,458,Subduction zone / Continental crust (>25 km),Trachyte / Trachydacite
283131,Hiuchigatake,Japan,Northwest Pacific Volcanic Regions,Northeast Japan Volcanic Arc,Stratovolcano,Eruption Observed,1544,36.955,139.285,2356,Subduction zone / Continental crust (>25 km),Andesite / Basaltic Andesite
221270,Aluto,Ethiopia,Eastern Africa Volcanic Regions,Main Ethiopian Rift Volcanic Province,Stratovolcano,Eruption Dated,1550,7.77,38.78,2335,Rift zone / Continental crust (>25 km),Rhyolite
245010,Taveuni,Fiji,Southwest Pacific Volcanic Regions,Fiji Volcanic Arc,Shield,Eruption Dated,1550,-16.8412,-179.9644,1241,Subduction zone / Crustal thickness unknown,Basalt / Picro-Basalt
283280,Hakkodasan,Japan,Northwest Pacific Volcanic Regions,Northeast Japan Volcanic Arc,Stratovolcano(es),Eruption Dated,1550,40.659,140.877,1585,Subduction zone / Continental crust (>25 km),Andesite / Basaltic Andesite
300180,Kikhpinych,Russia,Northwest Pacific Volcanic Regions,Eastern Kamchatka Volcanic Arc,Stratovolcano(es),Eruption Dated,1550,54.489,160.251,1515,Subduction zone / Continental crust (>25 km),Basalt / Picro-Basalt
300190,Krasheninnikov,Russia,Northwest Pacific Volcanic Regions,Eastern Kamchatka Volcanic Arc,Caldera,Eruption Dated,1550,54.596,160.27,1816,Subduction zone / Continental crust (>25 km),Basalt / Picro-Basalt
311090,Takawangha,United States,North America Volcanic Regions,Aleutian Ridge Volcanic Arc,Stratovolcano,Eruption Dated,1550,51.873,-178.006,1449,Subduction zone / Intermediate crust (15-25 km),Basalt / Picro-Basalt
320150,Wells Gray-Clearwater,Canada,North America Volcanic Regions,Interior Western Canada Volcanic Province,Volcanic field,Eruption Dated,1550,52.33,-120.57,2576,Intraplate / Continental crust (>25 km),Basalt / Picro-Basalt
346010,Baru,Panama,Middle America-Caribbean Volcanic Regions,Central America Volcanic Arc,Stratovolcano,Eruption Observed,1550,8.808,-82.543,3474,Subduction zone / Continental crust (>25 km),Andesite / Basaltic Andesite
358056,Maca,Chile,South America Volcanic Regions,Southern Andean Volcanic Arc,Stratovolcano,Eruption Dated,1560,-45.1,-73.17,2960,Subduction zone / Continental crust (>25 km),Basalt / Picro-Basalt
382090,Agua de Pau,Portugal,Atlantic Ocean Volcanic Regions,Azores-Terceira Rift Volcanic Province,Stratovolcano,Eruption Observed,1564,37.77,-25.47,947,Rift zone / Oceanic crust (< 15 km),Trachyte / Trachydacite
255011,Billy Mitchell,Papua New Guinea,Southwest Pacific Volcanic Regions,Solomon Volcanic Arc,Caldera,Eruption Dated,1580,-6.0898,155.2254,1544,Subduction zone / Crustal thickness unknown,Andesite / Basaltic Andesite
300450,Alney-Chashakondzha,Russia,Northwest Pacific Volcanic Regions,Central Kamchatka Volcanic Arc,Stratovolcano,Eruption Dated,1600,56.656,159.647,2570,Subduction zone / Continental crust (>25 km),Basalt / Picro-Basalt
354030,Huaynaputina,Peru,South America Volcanic Regions,Central Andean Volcanic Arc,Stratovolcano,Eruption Observed,1600,-16.6144,-70.8542,4679,Subduction zone / Continental crust (>25 km),Dacite
284050,Hachijojima,Japan,Northwest Pacific Volcanic Regions,Izu Volcanic Arc,Stratovolcano(es),Eruption Observed,1606,33.137,139.766,854,Subduction zone / Oceanic crust (< 15 km),Basalt / Picro-Basalt
382100,Furnas,Portugal,Atlantic Ocean Volcanic Regions,Azores-Terceira Rift Volcanic Province,Stratovolcano,Eruption Observed,1630,37.77,-25.32,805,Rift zone / Oceanic crust (< 15 km),Trachyte / Trachydacite
221141,Dama Ali,Ethiopia,Eastern Africa Volcanic Regions,Main Ethiopian Rift Volcanic Province,Shield,Eruption Observed,1631,11.28,41.63,1068,Rift zone / Intermediate crust (15-25 km),Basalt / Picro-Basalt
360010,Saba,Netherlands,Middle America-Caribbean Volcanic Regions,Lesser Antilles Volcanic Arc,Stratovolcano,Eruption Observed,1640,17.63,-63.23,887,Subduction zone / Oceanic crust (< 15 km),Andesite / Basaltic Andesite
271011,Melebingoy,Philippines,Western Pacific Volcanic Regions,Mindanao Volcanic Province,Stratovolcano,Eruption Observed,1641,6.113,124.892,1824,Subduction zone / Continental crust (>25 km),Andesite / Basaltic Andesite
212042,Kolumbo,Greece,European Volcanic Regions,Hellenic Volcanic Arc,Complex,Eruption Dated,1650,36.524,25.483,-18,,
213020,Nemrut Dagi,Turkiye,Arabia-Central Asia Volcanic Regions,Central Anatolian Volcanic Province,Stratovolcano,Eruption Observed,1650,38.654,42.229,2948,Intraplate / Continental crust (>25 km),Rhyolite
382081,Picos Fissural Volcanic System,Portugal,Atlantic Ocean Volcanic Regions,Azores-Terceira Rift Volcanic Province,Fissure vent,Eruption Observed,1652,37.78,-25.67,350,Rift zone / Oceanic crust (< 15 km),Trachybasalt / Tephrite Basanite
283050,Hakusan,Japan,Western Pacific Volcanic Regions,Nankai Volcanic Arc,Stratovolcano,Eruption Observed,1659,36.155,136.771,2702,Subduction zone / Continental crust (>25 km),Andesite / Basaltic Andesite
245030,Nabukelevu,Fiji,Southwest Pacific Volcanic Regions,Fiji Volcanic Arc,Lava dome(s),Eruption Dated,1660,-19.1181,177.9815,791,Subduction zone / Crustal thickness unknown,Andesite / Basaltic Andesite
300020,Koshelev,Russia,Northwest Pacific Volcanic Regions,Kuril Volcanic Arc,Stratovolcano,Eruption Observed,1690,51.356,156.753,1822,Subduction zone / Continental crust (>25 km),Basalt / Picro-Basalt
320100,Tseax River Cone,Canada,North America Volcanic Regions,Northern Cordilleran Volcanic Province,Pyroclastic cone,Eruption Dated,1690,55.1109,-128.8991,612,Intraplate / Continental crust (>25 km),Basalt / Picro-Basalt
321020,Glacier Peak,United States,North America Volcanic Regions,Garibaldi Volcanic Arc,Stratovolcano,Eruption Dated,1700,48.112,-121.113,3213,Subduction zone / Continental crust (>25 km),Dacite
283030,Fujisan,Japan,Northwest Pacific Volcanic Regions,Izu Volcanic Arc,Stratovolcano,Eruption Observed,1708,35.361,138.728,3776,Subduction zone / Continental crust (>25 km),Basalt / Picro-Basalt
312200,Snowy Mountain,United States,North America Volcanic Regions,Alaska Peninsula Volcanic Arc,Stratovolcano(es),Eruption Dated,1710,58.336,-154.682,2162,Subduction zone / Continental crust (>25 km),Andesite / Basaltic Andesite
358054,Mentolat,Chile,South America Volcanic Regions,Southern Andean Volcanic Arc,Stratovolcano,Eruption Observed,1710,-44.7,-73.08,1660,Subduction zone / Continental crust (>25 km),Andesite / Basaltic Andesite
351012,"Bravo, Cerro",Colombia,South America Volcanic Regions,Northern Andean Volcanic Arc,Stratovolcano,Eruption Dated,1720,5.091,-75.293,3985,Subduction zone / Continental crust (>25 km),Dacite
382020,Pico,Portugal,Atlantic Ocean Volcanic Regions,Azores-Terceira Rift Volcanic Province,Stratovolcano,Eruption Observed,1720,38.47,-28.4,2351,Rift zone / Oceanic crust (< 15 km),Basalt / Picro-Basalt
382070,Don Joao de Castro Bank,Portugal,Atlantic Ocean Volcanic Regions,Azores-Terceira Rift Volcanic Province,Shield,Eruption Observed,1720,38.23,-26.63,-13,Rift zone / Oceanic crust (< 15 km),Basalt / Picro-Basalt
374010,Oraefajokull,Iceland,Atlantic Ocean Volcanic Regions,Iceland Neovolcanic Rift Volcanic Province,Stratovolcano,Eruption Observed,1728,64,-16.65,2010,Rift zone / Oceanic crust (< 15 km),Basalt / Picro-Basalt
263220,Sumbing,Indonesia,Sunda-Banda Volcanic Regions,Sunda Volcanic Arc,Stratovolcano,Eruption Observed,1730,-7.384,110.07,3371,Subduction zone / Continental crust (>25 km),Andesite / Basaltic Andesite
285060,Taisetsuzan,Japan,Northwest Pacific Volcanic Regions,Kuril Volcanic Arc,Stratovolcano(es),Eruption Dated,1739,43.664,142.854,2291,Subduction zone / Continental crust (>25 km),Andesite / Basaltic Andesite
300280,Ichinsky,Russia,Northwest Pacific Volcanic Regions,Central Kamchatka Volcanic Arc,Stratovolcano,Eruption Observed,1740,55.678,157.718,3596,Subduction zone / Continental crust (>25 km),Basalt / Picro-Basalt
332060,Haleakala,United States,Eastern Pacific Volcanic Regions,Hawaiian-Emperor Hotspot Volcano Group,Shield,Eruption Dated,1750,20.708,-156.25,3055,Intraplate / Oceanic crust (< 15 km),Basalt / Picro-Basalt
357123,Huanquihue Group,Argentina,South America Volcanic Regions,Southern Andean Volcanic Arc,Stratovolcano(es),Eruption Dated,1750,-39.887,-71.58,2189,Subduction zone / Continental crust (>25 km),Basalt / Picro-Basalt
375010,Kolbeinsey Ridge,Iceland,Atlantic Ocean Volcanic Regions,Arctic Ridge Volcanic Province,Fissure vent,Eruption Observed,1755,66.67,-18.5,5,Rift zone / Oceanic crust (< 15 km),Basalt / Picro-Basalt
360140,Qualibou,Saint Lucia,Middle America-Caribbean Volcanic Regions,Lesser Antilles Volcanic Arc,Caldera,Eruption Observed,1766,13.83,-61.05,777,Subduction zone / Oceanic crust (< 15 km),Andesite / Basaltic Andesite
222090,Olkaria,Kenya,Eastern Africa Volcanic Regions,Kenyan Rift Volcanic Province,Pyroclastic cone(s),Eruption Dated,1770,-0.904,36.292,2434,Rift zone / Continental crust (>25 km),Rhyolite
352022,Chacana,Ecuador,South America Volcanic Regions,Northern Andean Volcanic Arc,Caldera,Eruption Observed,1773,-0.375,-78.25,4643,Subduction zone / Continental crust (>25 km),Rhyolite
300080,Opala,Russia,Northwest Pacific Volcanic Regions,Kuril Volcanic Arc,Caldera,Eruption Observed,1776,52.543,157.339,2439,Subduction zone / Continental crust (>25 km),Basalt / Picro-Basalt
305030,Wudalianchi,China,Eastern Asia Volcanic Regions,Central East Asia Volcanic Province,Volcanic field,Eruption Observed,1776,48.722,126.15,597,Intraplate / Continental crust (>25 km),Trachybasalt / Tephrite Basanite
284060,Aogashima,Japan,Northwest Pacific Volcanic Regions,Izu Volcanic Arc,Stratovolcano,Eruption Observed,1785,32.458,139.759,423,Subduction zone / Oceanic crust (< 15 km),Basalt / Picro-Basalt
352006,Cayambe,Ecuador,South America Volcanic Regions,Northern Andean Volcanic Arc,Compound,Eruption Observed,1786,0.029,-77.986,5790,Subduction zone / Continental crust (>25 km),Andesite / Basaltic Andesite
283290,Osorezan,Japan,Northwest Pacific Volcanic Regions,Northeast Japan Volcanic Arc,Stratovolcano,Eruption Observed,1787,41.279,141.12,878,Subduction zone / Continental crust (>25 km),Andesite / Basaltic Andesite
285010,Oshima-Oshima,Japan,Northwest Pacific Volcanic Regions,Northeast Japan Volcanic Arc,Stratovolcano,Eruption Observed,1790,41.51,139.367,732,Subduction zone / Continental crust (>25 km),Basalt / Picro-Basalt
323110,Mono Lake Volcanic Field,United States,North America Volcanic Regions,Basin and Range Volcanic Province,Volcanic field,Eruption Dated,1790,38,-119.03,2121,Rift zone / Continental crust (>25 km),Dacite
234002,St. Paul,France,Somalian-Antarctic Volcanic Regions,Amsterdam-St. Paul Hotspot Volcano Group,Stratovolcano,Eruption Observed,1793,-38.72,77.53,268,Rift zone / Oceanic crust (< 15 km),Basalt / Picro-Basalt
311390,Amak,United States,North America Volcanic Regions,Aleutian Ridge Volcanic Arc,Stratovolcano,Eruption Observed,1796,55.4184,-163.1472,547,Subduction zone / Continental crust (>25 km),Andesite / Basaltic Andesite
341110,San Martin,Mexico,Middle America-Caribbean Volcanic Regions,Trans-Mexican Volcanic Arc,Volcanic field,Eruption Observed,1796,18.57,-95.2,1650,Subduction zone / Continental crust (>25 km),Trachybasalt / Tephrite Basanite
263240,Merbabu,Indonesia,Sunda-Banda Volcanic Regions,Sunda Volcanic Arc,Stratovolcano,Eruption Observed,1797,-7.454,110.44,3118,Subduction zone / Continental crust (>25 km),Basalt / Picro-Basalt
222170,Kyejo,Tanzania,Eastern Africa Volcanic Regions,Rukwa Rift Volcanic Province,Stratovolcano,Eruption Observed,1800,-9.229,33.792,2176,Rift zone / Continental crust (>25 km),Trachyte / Trachydacite
241030,Taranaki,New Zealand,Tonga-Kermadec Volcanic Regions,Western North Island Volcanic Province,Stratovolcano,Eruption Observed,1800,-39.3,174.07,2518,Subduction zone / Continental crust (>25 km),Andesite / Basaltic Andesite
285082,Rausudake,Japan,Northwest Pacific Volcanic Regions,Kuril Volcanic Arc,Stratovolcano,Eruption Dated,1800,44.076,145.122,1660,Subduction zone / Continental crust (>25 km),Andesite / Basaltic Andesite
320090,Iskut-Unuk River Cones,Canada,North America Volcanic Regions,Northern Cordilleran Volcanic Province,Pyroclastic cone(s),Eruption Dated,1800,56.567,-130.75,1880,Intraplate / Continental crust (>25 km),Basalt / Picro-Basalt
354031,Ticsani,Peru,South America Volcanic Regions,Central Andean Volcanic Arc,Lava dome(s),Eruption Dated,1800,-16.7586,-70.5981,5382,Subduction zone / Continental crust (>25 km),Dacite
332040,Hualalai,United States,Eastern Pacific Volcanic Regions,Hawaiian-Emperor Hotspot Volcano Group,Shield,Eruption Observed,1801,19.692,-155.87,2523,Intraplate / Oceanic crust (< 15 km),Basalt / Picro-Basalt
352030,Antisana,Ecuador,South America Volcanic Regions,Northern Andean Volcanic Arc,Stratovolcano,Eruption Observed,1802,-0.481,-78.141,5753,Subduction zone / Continental crust (>25 km),Andesite / Basaltic Andesite
354040,Tutupaca,Peru,South America Volcanic Regions,Central Andean Volcanic Arc,Stratovolcano(es),Eruption Observed,1802,-17.026,-70.372,5801,Subduction zone / Continental crust (>25 km),Andesite / Basaltic Andesite
231080,"Yar, Jabal",Saudi Arabia,Arabia-Central Asia Volcanic Regions,Southwest Arabia Volcanic Province,Volcanic field,Eruption Observed,1810,17.05,42.83,305,Intraplate / Continental crust (>25 km),Basalt / Picro-Basalt
355090,Putana,Chile,South America Volcanic Regions,Central Andean Volcanic Arc,Stratovolcano,Eruption Observed,1810,-22.557,-67.853,5884,Subduction zone / Continental crust (>25 km),Dacite
353030,Darwin,Ecuador,Eastern Pacific Volcanic Regions,Galapagos Hotspot Volcano Group,Shield,Eruption Dated,1813,-0.18,-91.28,1330,Rift zone / Oceanic crust (< 15 km),Basalt / Picro-Basalt
312130,Ugashik-Peulik,United States,North America Volcanic Regions,Alaska Peninsula Volcanic Arc,Stratovolcano,Eruption Observed,1814,57.751,-156.368,1474,Subduction zone / Continental crust (>25 km),Andesite / Basaltic Andesite
342040,Almolonga,Guatemala,Middle America-Caribbean Volcanic Regions,Central America Volcanic Arc,Stratovolcano,Eruption Observed,1818,14.797,-91.519,3173,Subduction zone / Continental crust (>25 km),Dacite
221190,Fentale,Ethiopia,Eastern Africa Volcanic Regions,Main Ethiopian Rift Volcanic Province,Stratovolcano,Eruption Observed,1820,8.985,39.906,2007,Rift zone / Continental crust (>25 km),Rhyolite
221200,Kone,Ethiopia,Eastern Africa Volcanic Regions,Main Ethiopian Rift Volcanic Province,Caldera(s),Eruption Observed,1820,8.8105,39.6946,1380,Rift zone / Continental crust (>25 km),Rhyolite
272050,Cabalían,Philippines,Western Pacific Volcanic Regions,Eastern Philippine Volcanic Arc,Stratovolcano,Eruption Dated,1820,10.285,125.218,912,Subduction zone / Continental crust (>25 km),Andesite / Basaltic Andesite
285034,Kuttara,Japan,Northwest Pacific Volcanic Regions,Northeast Japan Volcanic Arc,Stratovolcano(es),Eruption Dated,1820,42.491,141.16,549,Subduction zone / Continental crust (>25 km),Basalt / Picro-Basalt
358090,Fueguino,Chile,South America Volcanic Regions,Austral Andean Volcanic Arc,Lava dome(s),Eruption Observed,1820,-54.97,-70.262,157,Subduction zone / Continental crust (>25 km),Andesite / Basaltic Andesite
357072,Tromen Volcanic Plateau,Argentina,South America Volcanic Regions,Southern Andean Volcanic Arc,Stratovolcano(es),Eruption Observed,1822,-37.144,-70.033,4114,Subduction zone / Continental crust (>25 km),Andesite / Basaltic Andesite
383060,Lanzarote,Spain,Northern Africa Volcanic Regions,Canary Volcanic Province,Fissure vent(s),Eruption Observed,1824,29.03,-13.63,670,Intraplate / Intermediate crust (15-25 km),Basalt / Picro-Basalt
290190,Prevo Peak,Russia,Northwest Pacific Volcanic Regions,Kuril Volcanic Arc,Stratovolcano,Eruption Observed,1825,47.0139,152.1167,1360,Subduction zone / Oceanic crust (< 15 km),Basalt / Picro-Basalt
311230,Carlisle,United States,North America Volcanic Regions,Aleutian Ridge Volcanic Arc,Stratovolcano,Eruption Observed,1828,52.894,-170.054,1620,Subduction zone / Intermediate crust (15-25 km),Andesite / Basaltic Andesite
311050,Little Sitkin,United States,North America Volcanic Regions,Aleutian Ridge Volcanic Arc,Stratovolcano,Eruption Observed,1830,51.95,178.543,1174,Subduction zone / Intermediate crust (15-25 km),Andesite / Basaltic Andesite
311350,Fisher,United States,North America Volcanic Regions,Aleutian Ridge Volcanic Arc,Stratovolcano,Eruption Observed,1830,54.65,-164.43,1112,Subduction zone / Continental crust (>25 km),Andesite / Basaltic Andesite
282021,Yokoatejima,Japan,Western Pacific Volcanic Regions,Ryukyu Volcanic Arc,Stratovolcano(es),Eruption Observed,1835,28.797,128.997,495,Subduction zone / Oceanic crust (< 15 km),Andesite / Basaltic Andesite
358040,Michinmahuida,Chile,South America Volcanic Regions,Southern Andean Volcanic Arc,Stratovolcano,Eruption Observed,1835,-42.799,-72.445,2452,Subduction zone / Continental crust (>25 km),Andesite / Basaltic Andesite
283080,Midagahara,Japan,Western Pacific Volcanic Regions,Nankai Volcanic Arc,Stratovolcano,Eruption Observed,1839,36.571,137.59,2621,Subduction zone / Continental crust (>25 km),Andesite / Basaltic Andesite
213040,Ararat,Turkiye,Arabia-Central Asia Volcanic Regions,Central Anatolian Volcanic Province,Stratovolcano,Eruption Observed,1840,39.7,44.3,5165,Intraplate / Continental crust (>25 km),Andesite / Basaltic Andesite
341100,"Orizaba, Pico de",Mexico,Middle America-Caribbean Volcanic Regions,Trans-Mexican Volcanic Arc,Stratovolcano,Eruption Observed,1846,19.03,-97.27,5564,Subduction zone / Continental crust (>25 km),Andesite / Basaltic Andesite
243061,Kao,Tonga,Tonga-Kermadec Volcanic Regions,Tofua Volcanic Arc,Stratovolcano,Eruption Observed,1847,-19.668,-175.016,1009,Subduction zone / Oceanic crust (< 15 km),Andesite / Basaltic Andesite
255070,Savo,Solomon Islands,Southwest Pacific Volcanic Regions,Solomon Volcanic Arc,Stratovolcano,Eruption Observed,1847,-9.13,159.82,485,Subduction zone / Crustal thickness unknown,Andesite / Basaltic Andesite
263130,Guntur,Indonesia,Sunda-Banda Volcanic Regions,Sunda Volcanic Arc,Complex,Eruption Observed,1847,-7.143,107.841,2251,Subduction zone / Continental crust (>25 km),Andesite / Basaltic Andesite
290010,Tomariyama [Golovnin],Japan - administered by Russia,Northwest Pacific Volcanic Regions,Kuril Volcanic Arc,Caldera,Eruption Observed,1848,43.844,145.504,535,Subduction zone / Intermediate crust (15-25 km),Andesite / Basaltic Andesite
357160,Puntiagudo-Cordon Cenizos,Chile,South America Volcanic Regions,Southern Andean Volcanic Arc,Stratovolcano,Eruption Observed,1850,-40.969,-72.264,2493,Subduction zone / Continental crust (>25 km),Andesite / Basaltic Andesite
281031,Kueishantao,Taiwan,Western Pacific Volcanic Regions,Ryukyu Volcanic Arc,Stratovolcano,Eruption Observed,1853,24.841,121.953,361,Subduction zone / Continental crust (>25 km),Andesite / Basaltic Andesite
342060,Atitlan,Guatemala,Middle America-Caribbean Volcanic Regions,Central America Volcanic Arc,Stratovolcano(es),Eruption Observed,1853,14.583,-91.186,3535,Subduction zone / Continental crust (>25 km),Andesite / Basaltic Andesite
243090,Late,Tonga,Tonga-Kermadec Volcanic Regions,Tofua Volcanic Arc,Stratovolcano,Eruption Observed,1854,-18.806,-174.65,540,Subduction zone / Oceanic crust (< 15 km),Andesite / Basaltic Andesite
290340,Fuss Peak,Russia,Northwest Pacific Volcanic Regions,Kuril Volcanic Arc,Stratovolcano,Eruption Observed,1854,50.267,155.246,1742,Subduction zone / Continental crust (>25 km),Andesite / Basaltic Andesite
213030,Tenduruk Dagi,Turkiye,Arabia-Central Asia Volcanic Regions,Central Anatolian Volcanic Province,Shield,Eruption Observed,1855,39.356,43.874,3514,Intraplate / Continental crust (>25 km),Basalt / Picro-Basalt
222130,Chyulu Hills,Kenya,Eastern Africa Volcanic Regions,Kenyan Rift Volcanic Province,Volcanic field,Eruption Dated,1855,-2.68,37.88,2188,Rift zone / Continental crust (>25 km),Trachybasalt / Tephrite Basanite
274010,Camiguin de Babuyanes,Philippines,Western Pacific Volcanic Regions,Luzon Volcanic Arc,Stratovolcano,Eruption Observed,1857,18.83,121.86,712,Subduction zone / Crustal thickness unknown,Andesite / Basaltic Andesite
344010,Cosiguina,Nicaragua,Middle America-Caribbean Volcanic Regions,Central America Volcanic Arc,Stratovolcano,Eruption Observed,1859,12.98,-87.57,872,Subduction zone / Continental crust (>25 km),Andesite / Basaltic Andesite
273090,Cagua,Philippines,Western Pacific Volcanic Regions,Luzon Volcanic Arc,Stratovolcano,Eruption Observed,1860,18.222,122.123,1133,Subduction zone / Continental crust (>25 km),Andesite / Basaltic Andesite
290090,Chirippusan [Chirip],Japan - administered by Russia,Northwest Pacific Volcanic Regions,Kuril Volcanic Arc,Stratovolcano(es),Eruption Observed,1860,45.338,147.92,1587,Subduction zone / Intermediate crust (15-25 km),Basalt / Picro-Basalt
221100,Dubbi,Eritrea,Eastern Africa Volcanic Regions,Afar Rift Volcanic Province,Stratovolcano,Eruption Observed,1861,13.579,41.809,1625,Rift zone / Intermediate crust (15-25 km),Basalt / Picro-Basalt
222100,Longonot,Kenya,Eastern Africa Volcanic Regions,Kenyan Rift Volcanic Province,Stratovolcano,Eruption Dated,1863,-0.914,36.446,2776,Rift zone / Continental crust (>25 km),Trachyte / Trachydacite
283270,Iwakisan,Japan,Northwest Pacific Volcanic Regions,Northeast Japan Volcanic Arc,Stratovolcano,Eruption Observed,1863,40.656,140.303,1625,Subduction zone / Continental crust (>25 km),Andesite / Basaltic Andesite
381040,Pico Fracture Zone,Undersea Features,Atlantic Ocean Volcanic Regions,Azores-Terceira Rift Volcanic Province,Fissure vent,Eruption Observed,1865,38.75,-38.08,-4200,Intraplate / Oceanic crust (< 15 km),No Data (checked)
244010,Ofu-Olosega,United States,Southern Pacific Volcanic Regions,Samoan Hotspot Volcano Group,Shield(s),Eruption Observed,1866,-14.175,-169.618,639,Subduction zone / Oceanic crust (< 15 km),Basalt / Picro-Basalt
322010,Hood,United States,North America Volcanic Regions,High Cascades Volcanic Arc,Stratovolcano,Eruption Observed,1866,45.374,-121.695,3426,Subduction zone / Continental crust (>25 km),Andesite / Basaltic Andesite
211070,Campi Flegrei del Mar di Sicilia,Italy,European Volcanic Regions,Sicily Volcanic Province,Volcanic field,Eruption Observed,1867,37.1,12.7,-8,Rift zone / Continental crust (>25 km),Trachybasalt / Tephrite Basanite
373100,Tjornes Fracture Zone,Iceland,Atlantic Ocean Volcanic Regions,Arctic Ridge Volcanic Province,Fissure vent,Eruption Observed,1868,66.309,-17.118,-75,Rift zone / Oceanic crust (< 15 km),Basalt / Picro-Basalt
357080,Antuco,Chile,South America Volcanic Regions,Southern Andean Volcanic Arc,Stratovolcano,Eruption Observed,1869,-37.406,-71.349,2979,Subduction zone / Continental crust (>25 km),Basalt / Picro-Basalt
358010,Osorno,Chile,South America Volcanic Regions,Southern Andean Volcanic Arc,Stratovolcano,Eruption Observed,1869,-41.105,-72.496,2659,Subduction zone / Continental crust (>25 km),Basalt / Picro-Basalt
285011,Esan,Japan,Northwest Pacific Volcanic Regions,Northeast Japan Volcanic Arc,Lava dome(s),Eruption Observed,1874,41.805,141.166,618,Subduction zone / Continental crust (>25 km),Andesite / Basaltic Andesite
341030,Ceboruco,Mexico,Middle America-Caribbean Volcanic Regions,Trans-Mexican Volcanic Arc,Stratovolcano,Eruption Observed,1875,21.125,-104.508,2280,Subduction zone / Continental crust (>25 km),Andesite / Basaltic Andesite
313020,Iliamna,United States,North America Volcanic Regions,Alaska Peninsula Volcanic Arc,Stratovolcano,Eruption Observed,1876,60.032,-153.09,3053,Subduction zone / Continental crust (>25 km),Andesite / Basaltic Andesite
355110,Llullaillaco,Chile-Argentina,South America Volcanic Regions,Central Andean Volcanic Arc,Stratovolcano,Eruption Observed,1877,-24.72,-68.53,6739,Subduction zone / Continental crust (>25 km),Dacite
290290,Sinarka,Russia,Northwest Pacific Volcanic Regions,Kuril Volcanic Arc,Stratovolcano,Eruption Observed,1878,48.873,154.182,911,Subduction zone / Intermediate crust (15-25 km),Andesite / Basaltic Andesite
311270,Vsevidof,United States,North America Volcanic Regions,Aleutian Ridge Volcanic Arc,Stratovolcano,Eruption Observed,1878,53.13,-168.693,2149,Subduction zone / Intermediate crust (15-25 km),Andesite / Basaltic Andesite
266130,Tangkoko-Duasudara,Indonesia,Western Pacific Volcanic Regions,Sangihe Volcanic Arc,Stratovolcano,Eruption Observed,1880,1.518,125.185,1334,Subduction zone / Continental crust (>25 km),Andesite / Basaltic Andesite
290020,Raususan [Mendeleev],Japan - administered by Russia,Northwest Pacific Volcanic Regions,Kuril Volcanic Arc,Stratovolcano,Eruption Observed,1880,43.979,145.733,882,Subduction zone / Intermediate crust (15-25 km),Andesite / Basaltic Andesite
321010,Baker,United States,North America Volcanic Regions,Garibaldi Volcanic Arc,Stratovolcano(es),Eruption Observed,1880,48.777,-121.813,3285,Subduction zone / Continental crust (>25 km),Andesite / Basaltic Andesite
343060,Ilopango,El Salvador,Middle America-Caribbean Volcanic Regions,Central America Volcanic Arc,Caldera,Eruption Observed,1880,13.672,-89.053,450,Subduction zone / Continental crust (>25 km),Dacite
382080,Sete Cidades,Portugal,Atlantic Ocean Volcanic Regions,Azores-Terceira Rift Volcanic Province,Stratovolcano,Eruption Observed,1880,37.865,-25.785,842,Rift zone / Oceanic crust (< 15 km),Trachyte / Trachydacite
257090,Traitor's Head,Vanuatu,Southwest Pacific Volcanic Regions,Vanuatu Volcanic Arc,Stratovolcano,Eruption Observed,1881,-18.754,169.238,817,Subduction zone / Intermediate crust (15-25 km),Basalt / Picro-Basalt
261070,Singkut,Indonesia,Sunda-Banda Volcanic Regions,Sunda Volcanic Arc,Caldera(s),Eruption Observed,1881,3.2379,98.5127,2181,Subduction zone / Continental crust (>25 km),Andesite / Basaltic Andesite
271040,Makaturing,Philippines,Western Pacific Volcanic Regions,Mindanao Volcanic Province,Stratovolcano,Eruption Observed,1882,7.644,124.317,1818,Subduction zone / Continental crust (>25 km),Basalt / Picro-Basalt
284190,Guguan,United States,Northwest Pacific Volcanic Regions,Mariana Volcanic Arc,Stratovolcano,Eruption Observed,1883,17.3137,145.84,232,Subduction zone / Crustal thickness unknown,Andesite / Basaltic Andesite
290210,Ushishur,Russia,Northwest Pacific Volcanic Regions,Kuril Volcanic Arc,Caldera,Eruption Observed,1884,47.5125,152.8139,357,Subduction zone / Oceanic crust (< 15 km),Andesite / Basaltic Andesite
263260,Lawu,Indonesia,Sunda-Banda Volcanic Regions,Sunda Volcanic Arc,Stratovolcano,Eruption Observed,1885,-7.625,111.192,3265,Subduction zone / Continental crust (>25 km),Andesite / Basaltic Andesite
252110,Bamus,Papua New Guinea,Southwest Pacific Volcanic Regions,Bismarck Volcanic Arc,Stratovolcano,Eruption Observed,1886,-5.2,151.23,2248,Subduction zone / Continental crust (>25 km),Andesite / Basaltic Andesite
212050,Nisyros,Greece,European Volcanic Regions,Hellenic Volcanic Arc,Stratovolcano,Eruption Observed,1888,36.5888,27.1553,698,Subduction zone / Continental crust (>25 km),Dacite
222020,Lake Turkana South Island,Kenya,Eastern Africa Volcanic Regions,Kenyan Rift Volcanic Province,Stratovolcano,Eruption Observed,1888,2.6364,36.5958,800,Rift zone / Continental crust (>25 km),Basalt / Picro-Basalt
283160,Bandaisan,Japan,Northwest Pacific Volcanic Regions,Northeast Japan Volcanic Arc,Stratovolcano,Eruption Observed,1888,37.601,140.072,1816,Subduction zone / Continental crust (>25 km),Andesite / Basaltic Andesite
211050,Vulcano,Italy,European Volcanic Regions,Aeolian Volcanic Arc,Stratovolcano(es),Eruption Observed,1890,38.404,14.962,500,Subduction zone / Continental crust (>25 km),Trachybasalt / Tephrite Basanite
300261,Ushkovsky,Russia,Northwest Pacific Volcanic Regions,Eastern Kamchatka Volcanic Arc,Compound,Eruption Observed,1890,56.113,160.509,3943,Subduction zone / Continental crust (>25 km),Basalt / Picro-Basalt
334130,Southern EPR at 18.2°S (Segment J),Undersea Features,Southern Pacific Volcanic Regions,Southern East Pacific Rise Volcanic Province,Fissure vent(s),Eruption Dated,1890,-18.175,-113.35,-2650,Rift zone / Oceanic crust (< 15 km),Basalt / Picro-Basalt
211071,Pantelleria,Italy,European Volcanic Regions,Sicily Volcanic Province,Shield,Eruption Observed,1891,36.77,12.02,836,Rift zone / Continental crust (>25 km),Rhyolite
265040,Wurlali,Indonesia,Sunda-Banda Volcanic Regions,Inner Banda Volcanic Arc,Stratovolcano,Eruption Observed,1892,-7.125,128.675,868,Subduction zone / Oceanic crust (< 15 km),Andesite / Basaltic Andesite
390015,Melbourne,Antarctica,Antarctic-Scotia Volcanic Regions,McMurdo Volcanic Province,Stratovolcano,Eruption Dated,1892,-74.35,164.7,2732,Intraplate / Continental crust (>25 km),Trachyte / Trachydacite
252040,Dakataua,Papua New Guinea,Southwest Pacific Volcanic Regions,Bismarck Volcanic Arc,Caldera,Eruption Dated,1895,-5.0455,150.0996,408,Subduction zone / Continental crust (>25 km),Andesite / Basaltic Andesite
352040,Sumaco,Ecuador,South America Volcanic Regions,Northern Andean Volcanic Arc,Stratovolcano,Evidence Uncertain,1895,-0.538,-77.626,3990,Subduction zone / Continental crust (>25 km),Trachybasalt / Tephrite Basanite
263320,Lamongan,Indonesia,Sunda-Banda Volcanic Regions,Sunda Volcanic Arc,Stratovolcano,Eruption Observed,1898,-7.981,113.341,1641,Subduction zone / Continental crust (>25 km),Basalt / Picro-Basalt
285061,Maruyama,Japan,Northwest Pacific Volcanic Regions,Kuril Volcanic Arc,Stratovolcano(es),Eruption Observed,1898,43.418,143.031,2013,Subduction zone / Continental crust (>25 km),Andesite / Basaltic Andesite
390010,Buckle Island,Antarctica,Antarctic-Scotia Volcanic Regions,Balleny Hotspot Volcano Group,Stratovolcano,Eruption Observed,1899,-66.78,163.25,1239,Rift zone / Oceanic crust (< 15 km),Trachybasalt / Tephrite Basanite
221250,Bora-Bericha-Tullu Moye,Ethiopia,Eastern Africa Volcanic Regions,Main Ethiopian Rift Volcanic Province,Pyroclastic cone,Eruption Observed,1900,8.2114,39.0812,2345,Rift zone / Continental crust (>25 km),Rhyolite
300030,Iliinsky,Russia,Northwest Pacific Volcanic Regions,Kuril Volcanic Arc,Stratovolcano,Eruption Observed,1901,51.498,157.203,1555,Subduction zone / Continental crust (>25 km),Andesite / Basaltic Andesite
382030,Sao Jorge,Portugal,Atlantic Ocean Volcanic Regions,Azores-Terceira Rift Volcanic Province,Fissure vent,Eruption Observed,1902,38.65,-28.08,1053,Rift zone / Oceanic crust (< 15 km),Basalt / Picro-Basalt
258020,Hunter Island,France - claimed by Vanuatu,Southwest Pacific Volcanic Regions,Vanuatu Volcanic Arc,Stratovolcano,Eruption Observed,1903,-22.4,172.05,297,Subduction zone / Crustal thickness unknown,Andesite / Basaltic Andesite
305060,Changbaishan,China-North Korea,Eastern Asia Volcanic Regions,Central East Asia Volcanic Province,Stratovolcano,Eruption Observed,1903,41.98,128.08,2744,Intraplate / Continental crust (>25 km),Trachyte / Trachydacite
265050,Teon,Indonesia,Sunda-Banda Volcanic Regions,Inner Banda Volcanic Arc,Stratovolcano,Eruption Observed,1904,-6.976,129.144,728,Subduction zone / Oceanic crust (< 15 km),Andesite / Basaltic Andesite
373012,Thordarhyrna,Iceland,Atlantic Ocean Volcanic Regions,Iceland Neovolcanic Rift Volcanic Province,Stratovolcano,Eruption Observed,1904,64.267,-17.617,1650,Rift zone / Oceanic crust (< 15 km),
390031,Penguin Island,Antarctica,Antarctic-Scotia Volcanic Regions,South Shetlands Volcanic Arc,Stratovolcano,Eruption Observed,1905,-62.1,-57.93,180,Intraplate / Continental crust (>25 km),Basalt / Picro-Basalt
284150,Asuncion,United States,Northwest Pacific Volcanic Regions,Mariana Volcanic Arc,Stratovolcano,Eruption Observed,1906,19.671,145.406,857,Subduction zone / Crustal thickness unknown,Andesite / Basaltic Andesite
351070,Dona Juana,Colombia,South America Volcanic Regions,Northern Andean Volcanic Arc,Stratovolcano,Eruption Observed,1906,1.5,-76.936,4137,Subduction zone / Continental crust (>25 km),Andesite / Basaltic Andesite
353090,Santiago,Ecuador,Eastern Pacific Volcanic Regions,Galapagos Hotspot Volcano Group,Shield,Eruption Observed,1906,-0.22,-90.77,920,Rift zone / Oceanic crust (< 15 km),Basalt / Picro-Basalt
300050,Ksudach,Russia,Northwest Pacific Volcanic Regions,Kuril Volcanic Arc,Stratovolcano,Eruption Observed,1907,51.844,157.572,1079,Subduction zone / Continental crust (>25 km),Andesite / Basaltic Andesite
358063,Reclus,Chile,South America Volcanic Regions,Austral Andean Volcanic Arc,Pyroclastic cone,Eruption Observed,1908,-50.9395,-73.5802,1403,Subduction zone / Continental crust (>25 km),Dacite
383030,Tenerife,Spain,Northern Africa Volcanic Regions,Canary Volcanic Province,Stratovolcano,Eruption Observed,1909,28.271,-16.641,3715,Intraplate / Oceanic crust (< 15 km),Phonolite
222051,Emuruangogolak,Kenya,Eastern Africa Volcanic Regions,Kenyan Rift Volcanic Province,Shield,Eruption Dated,1910,1.5,36.33,1285,Rift zone / Continental crust (>25 km),Trachyte / Trachydacite
222160,Meru,Tanzania,Eastern Africa Volcanic Regions,Kenyan Rift Volcanic Province,Stratovolcano,Eruption Observed,1910,-3.244,36.75,4550,Rift zone / Continental crust (>25 km),Phonolite
255050,Simbo,Solomon Islands,Southwest Pacific Volcanic Regions,Solomon Volcanic Arc,Stratovolcano(es),Eruption Dated,1910,-8.292,156.52,335,Subduction zone / Crustal thickness unknown,Andesite / Basaltic Andesite
358070,"Burney, Monte",Chile,South America Volcanic Regions,Austral Andean Volcanic Arc,Stratovolcano,Eruption Observed,1910,-52.33,-73.4,1758,Subduction zone / Continental crust (>25 km),Andesite / Basaltic Andesite
244040,Savaii,Samoa,Southern Pacific Volcanic Regions,Samoan Hotspot Volcano Group,Shield,Eruption Observed,1911,-13.612,-172.525,1858,Subduction zone / Oceanic crust (< 15 km),Basalt / Picro-Basalt
382110,Monaco Bank,Portugal,Atlantic Ocean Volcanic Regions,Azores-Terceira Rift Volcanic Province,Fissure vent,Eruption Observed,1911,37.6,-25.88,-197,Rift zone / Oceanic crust (< 15 km),No Data (checked)
390100,Candlemas Island,United Kingdom,Antarctic-Scotia Volcanic Regions,South Sandwich Volcanic Arc,Stratovolcano,Eruption Observed,1911,-57.08,-26.67,550,Subduction zone / Oceanic crust (< 15 km),Basalt / Picro-Basalt
252130,Lolobau,Papua New Guinea,Southwest Pacific Volcanic Regions,Bismarck Volcanic Arc,Caldera,Eruption Observed,1912,-4.9156,151.1617,878,Subduction zone / Continental crust (>25 km),Basalt / Picro-Basalt
312170,Katmai,United States,North America Volcanic Regions,Alaska Peninsula Volcanic Arc,Stratovolcano,Eruption Observed,1912,58.279,-154.9533,2047,Subduction zone / Continental crust (>25 km),Andesite / Basaltic Andesite
312180,Novarupta,United States,North America Volcanic Regions,Alaska Peninsula Volcanic Arc,Caldera,Eruption Observed,1912,58.2655,-155.1588,841,Subduction zone / Continental crust (>25 km),Rhyolite
315020,Wrangell,United States,North America Volcanic Regions,Wrangell Volcanic Arc,Shield,Eruption Observed,1912,62.006,-144.017,4278,Intraplate / Continental crust (>25 km),Andesite / Basaltic Andesite
357021,Maipo,Chile-Argentina,South America Volcanic Regions,Southern Andean Volcanic Arc,Caldera,Eruption Observed,1912,-34.164,-69.832,5323,Subduction zone / Continental crust (>25 km),Trachyandesite / Basaltic Trachyandesite
355030,Isluga,Chile,South America Volcanic Regions,Central Andean Volcanic Arc,Stratovolcano,Eruption Observed,1913,-19.15,-68.83,5550,Subduction zone / Continental crust (>25 km),Andesite / Basaltic Andesite
282040,Nakanoshima,Japan,Western Pacific Volcanic Regions,Ryukyu Volcanic Arc,Stratovolcano(es),Eruption Observed,1914,29.859,129.857,979,Subduction zone / Oceanic crust (< 15 km),Andesite / Basaltic Andesite
290161,Milna,Russia,Northwest Pacific Volcanic Regions,Kuril Volcanic Arc,Stratovolcano,Eruption Observed,1914,46.815,151.786,1504,Subduction zone / Oceanic crust (< 15 km),Andesite / Basaltic Andesite
311080,Tanaga,United States,North America Volcanic Regions,Aleutian Ridge Volcanic Arc,Stratovolcano(es),Eruption Observed,1914,51.885,-178.146,1806,Subduction zone / Intermediate crust (15-25 km),Basalt / Picro-Basalt
221112,Alayta,Ethiopia,Eastern Africa Volcanic Regions,Afar Rift Volcanic Province,Shield,Eruption Observed,1915,12.888,40.573,1496,Rift zone / Intermediate crust (15-25 km),Basalt / Picro-Basalt
334140,Southern EPR at 18.5°S (Segment I),Undersea Features,Southern Pacific Volcanic Regions,Southern East Pacific Rise Volcanic Province,Fissure vent(s),Eruption Dated,1915,-18.53,-113.42,-2600,Rift zone / Oceanic crust (< 15 km),Basalt / Picro-Basalt
271060,Ragang,Philippines,Western Pacific Volcanic Regions,Mindanao Volcanic Province,Stratovolcano,Eruption Observed,1916,7.691,124.507,2790,Subduction zone / Continental crust (>25 km),Basalt / Picro-Basalt
284080,Sumisujima,Japan,Northwest Pacific Volcanic Regions,Izu Volcanic Arc,Caldera,Eruption Observed,1916,31.44,140.051,136,Subduction zone / Oceanic crust (< 15 km),Dacite
284160,Agrigan,United States,Northwest Pacific Volcanic Regions,Mariana Volcanic Arc,Stratovolcano,Eruption Observed,1917,18.77,145.67,965,Subduction zone / Crustal thickness unknown,Basalt / Picro-Basalt
323080,Lassen Volcanic Center,United States,North America Volcanic Regions,High Cascades Volcanic Arc,Stratovolcano,Eruption Observed,1917,40.492,-121.508,3187,Subduction zone / Continental crust (>25 km),Andesite / Basaltic Andesite
343050,San Salvador,El Salvador,Middle America-Caribbean Volcanic Regions,Central America Volcanic Arc,Stratovolcano,Eruption Observed,1917,13.734,-89.294,1893,Subduction zone / Continental crust (>25 km),Andesite / Basaltic Andesite
357030,Tinguiririca,Chile,South America Volcanic Regions,Southern Andean Volcanic Arc,Stratovolcano,Eruption Observed,1917,-34.814,-70.352,4280,Subduction zone / Continental crust (>25 km),Andesite / Basaltic Andesite
372030,Katla,Iceland,Atlantic Ocean Volcanic Regions,Iceland Neovolcanic Rift Volcanic Province,Fissure vent(s),Eruption Observed,1918,63.633,-19.083,1490,Rift zone / Oceanic crust (< 15 km),Basalt / Picro-Basalt
267030,Banua Wuhu,Indonesia,Western Pacific Volcanic Regions,Sangihe Volcanic Arc,Complex,Eruption Observed,1919,3.138,125.491,-5,Subduction zone / Oceanic crust (< 15 km),Andesite / Basaltic Andesite
283240,Iwatesan,Japan,Northwest Pacific Volcanic Regions,Northeast Japan Volcanic Arc,Complex,Eruption Observed,1919,39.853,141.001,2038,Subduction zone / Continental crust (>25 km),Basalt / Picro-Basalt
358030,Huequi,Chile,South America Volcanic Regions,Southern Andean Volcanic Arc,Lava dome(s),Eruption Observed,1920,-42.377,-72.578,1318,Subduction zone / Continental crust (>25 km),Andesite / Basaltic Andesite
222030,"Barrier, The",Kenya,Eastern Africa Volcanic Regions,Kenyan Rift Volcanic Province,Shield,Eruption Observed,1921,2.32,36.57,1032,Rift zone / Continental crust (>25 km),Trachyte / Trachydacite
261180,Sumbing,Indonesia,Sunda-Banda Volcanic Regions,Sunda Volcanic Arc,Stratovolcano,Eruption Observed,1921,-2.414,101.728,2507,Subduction zone / Continental crust (>25 km),Andesite / Basaltic Andesite
265070,Serua,Indonesia,Sunda-Banda Volcanic Regions,Inner Banda Volcanic Arc,Stratovolcano,Eruption Observed,1921,-6.312,130.017,608,Subduction zone / Oceanic crust (< 15 km),Andesite / Basaltic Andesite
224004,Santa Isabel,Equatorial Guinea,Northern Africa Volcanic Regions,Cameroon Hotspot Volcano Group,Shield,Eruption Observed,1923,3.588,8.762,2999,Intraplate / Continental crust (>25 km),Basalt / Picro-Basalt
275060,"Cendres, Ile des",Vietnam,Eastern Asia Volcanic Regions,Southeast Asia Volcanic Province,Volcanic field,Eruption Observed,1923,10.158,109.014,-20,Intraplate / Continental crust (>25 km),Basalt / Picro-Basalt
300040,Zheltovsky,Russia,Northwest Pacific Volcanic Regions,Kuril Volcanic Arc,Stratovolcano,Eruption Observed,1923,51.577,157.328,1926,Subduction zone / Continental crust (>25 km),Basalt / Picro-Basalt
300200,Kronotsky,Russia,Northwest Pacific Volcanic Regions,Eastern Kamchatka Volcanic Arc,Stratovolcano,Eruption Observed,1923,54.753,160.533,3482,Subduction zone / Continental crust (>25 km),Basalt / Picro-Basalt
261150,Tandikat-Singgalang,Indonesia,Sunda-Banda Volcanic Regions,Sunda Volcanic Arc,Stratovolcano(es),Eruption Observed,1924,-0.39,100.331,2854,Subduction zone / Continental crust (>25 km),Andesite / Basaltic Andesite
274030,Babuyan Claro,Philippines,Western Pacific Volcanic Regions,Luzon Volcanic Arc,Stratovolcano(es),Eruption Observed,1924,19.524,121.95,1064,Subduction zone / Crustal thickness unknown,Andesite / Basaltic Andesite
282010,Submarine Volcano NNE of Iriomotejima,Japan,Western Pacific Volcanic Regions,Ryukyu Volcanic Arc,Stratovolcano,Eruption Observed,1924,24.57,123.93,-200,Subduction zone / Oceanic crust (< 15 km),Rhyolite
351100,Cumbal,Colombia,South America Volcanic Regions,Northern Andean Volcanic Arc,Stratovolcano,Eruption Observed,1926,0.95,-77.87,4764,Subduction zone / Continental crust (>25 km),Andesite / Basaltic Andesite
371022,Eldey,Iceland,Atlantic Ocean Volcanic Regions,Iceland Neovolcanic Rift Volcanic Province,Fissure vent,Eruption Observed,1926,63.733,-23,70,Rift zone / Oceanic crust (< 15 km),
221122,Manda-Inakir,Ethiopia-Djibouti,Eastern Africa Volcanic Regions,Afar Rift Volcanic Province,Fissure vent(s),Eruption Observed,1928,12.38,42.2,600,Rift zone / Intermediate crust (15-25 km),Basalt / Picro-Basalt
353070,Pinta,Ecuador,Eastern Pacific Volcanic Regions,Galapagos Hotspot Volcano Group,Shield,Eruption Observed,1928,0.58,-90.75,780,Rift zone / Oceanic crust (< 15 km),Basalt / Picro-Basalt
311260,Kagamil,United States,North America Volcanic Regions,Aleutian Ridge Volcanic Arc,Stratovolcano,Eruption Observed,1929,52.974,-169.72,893,Subduction zone / Intermediate crust (15-25 km),No Data (checked)
312090,Aniakchak,United States,North America Volcanic Regions,Alaska Peninsula Volcanic Arc,Caldera,Eruption Observed,1931,56.88,-158.17,1341,Subduction zone / Continental crust (>25 km),Andesite / Basaltic Andesite
243010,Unnamed,Tonga,Tonga-Kermadec Volcanic Regions,Tofua Volcanic Arc,Stratovolcano,Eruption Observed,1932,-21.338,-175.65,-68,Subduction zone / Oceanic crust (< 15 km),No Data (checked)
290050,Etorofu-Atosanupuri [Atosanupuri],Japan - administered by Russia,Northwest Pacific Volcanic Regions,Kuril Volcanic Arc,Stratovolcano,Eruption Observed,1932,44.808,147.131,1206,Subduction zone / Intermediate crust (15-25 km),Andesite / Basaltic Andesite
360120,Pelee,France,Middle America-Caribbean Volcanic Regions,Lesser Antilles Volcanic Arc,Stratovolcano,Eruption Observed,1932,14.809,-61.166,1372,Subduction zone / Oceanic crust (< 15 km),Andesite / Basaltic Andesite
275001,Hainan Volcanic Field,China,Eastern Asia Volcanic Regions,Southeast Asia Volcanic Province,Volcanic field,Eruption Observed,1933,19.905,110.229,196,Intraplate / Continental crust (>25 km),Basalt / Picro-Basalt
290300,Kharimkotan,Russia,Northwest Pacific Volcanic Regions,Kuril Volcanic Arc,Stratovolcano,Eruption Observed,1933,49.12,154.508,1145,Subduction zone / Intermediate crust (15-25 km),Andesite / Basaltic Andesite
357050,Descabezado Grande,Chile,South America Volcanic Regions,Southern Andean Volcanic Arc,Stratovolcano(es),Eruption Observed,1933,-35.58,-70.75,3953,Subduction zone / Continental crust (>25 km),Andesite / Basaltic Andesite
253030,Victory,Papua New Guinea,Southwest Pacific Volcanic Regions,Trobriand Volcanic Arc,Stratovolcano,Eruption Observed,1935,-9.2003,149.072,1832,Subduction zone / Continental crust (>25 km),Andesite / Basaltic Andesite
243050,Fonuafo'ou,Tonga,Tonga-Kermadec Volcanic Regions,Tofua Volcanic Arc,Stratovolcano,Eruption Observed,1936,-20.32,-175.42,-17,Subduction zone / Oceanic crust (< 15 km),Andesite / Basaltic Andesite
285090,Shiretoko-Iozan,Japan,Northwest Pacific Volcanic Regions,Kuril Volcanic Arc,Stratovolcano,Eruption Observed,1936,44.133,145.161,1562,Subduction zone / Continental crust (>25 km),Andesite / Basaltic Andesite
351110,Chiles-Cerro Negro,Colombia-Ecuador,South America Volcanic Regions,Northern Andean Volcanic Arc,Stratovolcano,Evidence Uncertain,1936,0.817,-77.938,4698,Subduction zone / Continental crust (>25 km),Dacite
261050,"Telong, Bur ni",Indonesia,Sunda-Banda Volcanic Regions,Sunda Volcanic Arc,Stratovolcano,Eruption Observed,1937,4.769,96.821,2617,Subduction zone / Continental crust (>25 km),Andesite / Basaltic Andesite
311210,Yunaska,United States,North America Volcanic Regions,Aleutian Ridge Volcanic Arc,Shield,Eruption Observed,1937,52.6394,-170.6317,550,Subduction zone / Intermediate crust (15-25 km),Andesite / Basaltic Andesite
357130,Mocho-Choshuenco,Chile,South America Volcanic Regions,Southern Andean Volcanic Arc,Stratovolcano(es),Eruption Observed,1937,-39.927,-72.027,2422,Subduction zone / Continental crust (>25 km),Andesite / Basaltic Andesite
263050,Salak,Indonesia,Sunda-Banda Volcanic Regions,Sunda Volcanic Arc,Stratovolcano,Eruption Observed,1938,-6.716,106.733,2218,Subduction zone / Continental crust (>25 km),Andesite / Basaltic Andesite
290320,Nemo Peak,Russia,Northwest Pacific Volcanic Regions,Kuril Volcanic Arc,Caldera,Eruption Observed,1938,49.57,154.808,1018,Subduction zone / Intermediate crust (15-25 km),Andesite / Basaltic Andesite
263040,Perbakti-Gagak,Indonesia,Sunda-Banda Volcanic Regions,Sunda Volcanic Arc,Stratovolcano(es),Eruption Observed,1939,-6.75,106.675,1726,Subduction zone / Continental crust (>25 km),Andesite / Basaltic Andesite
272080,Biliran,Philippines,Western Pacific Volcanic Regions,Eastern Philippine Volcanic Arc,Compound,Eruption Observed,1939,11.523,124.535,1301,Subduction zone / Continental crust (>25 km),Andesite / Basaltic Andesite
283190,Zaozan [Zaosan],Japan,Northwest Pacific Volcanic Regions,Northeast Japan Volcanic Arc,Complex,Eruption Observed,1940,38.144,140.44,1841,Subduction zone / Continental crust (>25 km),Andesite / Basaltic Andesite
351030,"Tolima, Nevado del",Colombia,South America Volcanic Regions,Northern Andean Volcanic Arc,Stratovolcano,Eruption Observed,1943,4.658,-75.33,5215,Subduction zone / Continental crust (>25 km),Andesite / Basaltic Andesite
211020,Vesuvius,Italy,European Volcanic Regions,Italian Peninsula Volcanic Provinces,Stratovolcano,Eruption Observed,1944,40.821,14.426,1281,Subduction zone / Continental crust (>25 km),Phono-tephrite /  Tephri-phonolite
253040,Sessagara Hills,Papua New Guinea,Southwest Pacific Volcanic Regions,Trobriand Volcanic Arc,Volcanic field,Eruption Observed,1944,-9.5542,149.1278,493,Subduction zone / Continental crust (>25 km),Trachyandesite / Basaltic Trachyandesite
243110,Niuafo'ou,Tonga,Tonga-Kermadec Volcanic Regions,Northeast Lau Basin Volcano Group,Shield,Eruption Observed,1946,-15.6,-175.63,260,Subduction zone / Oceanic crust (< 15 km),Basalt / Picro-Basalt
345030,Miravalles,Costa Rica,Middle America-Caribbean Volcanic Regions,Central America Volcanic Arc,Stratovolcano,Eruption Observed,1946,10.748,-85.153,2028,Subduction zone / Continental crust (>25 km),Andesite / Basaltic Andesite
212040,Santorini,Greece,European Volcanic Regions,Hellenic Volcanic Arc,Shield(s),Eruption Observed,1950,36.404,25.396,367,Subduction zone / Continental crust (>25 km),Dacite
283210,Kurikomayama,Japan,Northwest Pacific Volcanic Regions,Northeast Japan Volcanic Arc,Stratovolcano,Eruption Observed,1950,38.961,140.788,1627,Subduction zone / Continental crust (>25 km),Andesite / Basaltic Andesite
263170,Ciremai,Indonesia,Sunda-Banda Volcanic Regions,Sunda Volcanic Arc,Stratovolcano,Eruption Observed,1951,-6.895,108.408,3039,Subduction zone / Continental crust (>25 km),Andesite / Basaltic Andesite
290080,Sashiusudake [Baransky],Japan - administered by Russia,Northwest Pacific Volcanic Regions,Kuril Volcanic Arc,Stratovolcano,Eruption Observed,1951,45.1,148.019,1125,Subduction zone / Intermediate crust (15-25 km),Andesite / Basaltic Andesite
304030,Ashikule Volcanic Field,China,Eastern Asia Volcanic Regions,Kunlun Fault Volcano Group,Volcanic field,Eruption Observed,1951,35.742,81.646,5090,Intraplate / Continental crust (>25 km),Trachyte / Trachydacite
263290,Arjuno-Welirang,Indonesia,Sunda-Banda Volcanic Regions,Sunda Volcanic Arc,Stratovolcano,Eruption Observed,1952,-7.733,112.575,3343,Subduction zone / Continental crust (>25 km),Andesite / Basaltic Andesite
283140,Nikko-Shiranesan,Japan,Northwest Pacific Volcanic Regions,Northeast Japan Volcanic Arc,Shield,Eruption Observed,1952,36.799,139.376,2578,Subduction zone / Continental crust (>25 km),Andesite / Basaltic Andesite
290310,Tao-Rusyr Caldera,Russia,Northwest Pacific Volcanic Regions,Kuril Volcanic Arc,Stratovolcano,Eruption Observed,1952,49.34,154.725,1272,Subduction zone / Intermediate crust (15-25 km),Andesite / Basaltic Andesite
290350,Karpinsky Group,Russia,Northwest Pacific Volcanic Regions,Kuril Volcanic Arc,Complex,Eruption Observed,1952,50.148,155.373,1326,Subduction zone / Continental crust (>25 km),Andesite / Basaltic Andesite
300140,Maly Semyachik,Russia,Northwest Pacific Volcanic Regions,Eastern Kamchatka Volcanic Arc,Caldera,Eruption Observed,1952,54.135,159.674,1527,Subduction zone / Continental crust (>25 km),Basalt / Picro-Basalt
341060,Michoacan-Guanajuato,Mexico,Middle America-Caribbean Volcanic Regions,Trans-Mexican Volcanic Arc,Volcanic field,Eruption Observed,1952,19.85,-101.75,3860,Subduction zone / Continental crust (>25 km),Andesite / Basaltic Andesite
271080,Camiguin,Philippines,Western Pacific Volcanic Regions,Mindanao Volcanic Province,Stratovolcano(es),Eruption Observed,1953,9.203,124.673,1552,Subduction zone / Continental crust (>25 km),Andesite / Basaltic Andesite
284140,Farallon de Pajaros,United States,Northwest Pacific Volcanic Regions,Mariana Volcanic Arc,Stratovolcano,Eruption Observed,1953,20.546,144.893,337,Subduction zone / Crustal thickness unknown,Andesite / Basaltic Andesite
312140,Martin,United States,North America Volcanic Regions,Alaska Peninsula Volcanic Arc,Stratovolcano,Eruption Dated,1953,58.172,-155.361,1863,Subduction zone / Continental crust (>25 km),Dacite
341020,Barcena,Mexico,Eastern Pacific Volcanic Regions,Mathematicians Ridge Volcanic Province,Pyroclastic cone(s),Eruption Observed,1953,19.3,-110.82,332,Rift zone / Oceanic crust (< 15 km),Trachyte / Trachydacite
284121,Kita-Fukutokutai,Japan,Northwest Pacific Volcanic Regions,Ogasawara Volcanic Arc,Stratovolcano,Eruption Observed,1954,24.417,141.417,-73,Subduction zone / Crustal thickness unknown,No Data (checked)
344080,Las Pilas-El Hoyo Complex,Nicaragua,Middle America-Caribbean Volcanic Regions,Central America Volcanic Arc,Complex,Eruption Observed,1954,12.4922,-86.6786,1088,Subduction zone / Continental crust (>25 km),Andesite / Basaltic Andesite
253010,Lamington,Papua New Guinea,Southwest Pacific Volcanic Regions,Trobriand Volcanic Arc,Stratovolcano,Eruption Observed,1956,-8.95,148.15,1680,Subduction zone / Continental crust (>25 km),Andesite / Basaltic Andesite
258010,Matthew Island,France - claimed by Vanuatu,Southwest Pacific Volcanic Regions,Vanuatu Volcanic Arc,Stratovolcano,Eruption Observed,1956,-22.33,171.32,177,Subduction zone / Crustal thickness unknown,Andesite / Basaltic Andesite
223050,Visoke,DR Congo-Rwanda,Eastern Africa Volcanic Regions,Albertine Rift Volcanic Province,Stratovolcano,Eruption Observed,1957,-1.458,29.485,3696,Rift zone / Continental crust (>25 km),Trachyandesite / Basaltic Trachyandesite
243100,Fonualei,Tonga,Tonga-Kermadec Volcanic Regions,Tofua Volcanic Arc,Stratovolcano,Eruption Observed,1957,-18.023,-174.317,188,Subduction zone / Oceanic crust (< 15 km),Dacite
250010,St. Andrew Strait,Papua New Guinea,Southwest Pacific Volcanic Regions,Bismarck Sea Volcanic Province,Complex,Eruption Observed,1957,-2.38,147.35,270,Subduction zone / Oceanic crust (< 15 km),Rhyolite
263060,Gede-Pangrango,Indonesia,Sunda-Banda Volcanic Regions,Sunda Volcanic Arc,Stratovolcano(es),Eruption Observed,1957,-6.786,106.983,3026,Subduction zone / Continental crust (>25 km),Andesite / Basaltic Andesite
290180,Zavaritzki Caldera,Russia,Northwest Pacific Volcanic Regions,Kuril Volcanic Arc,Caldera,Eruption Observed,1957,46.9178,151.9518,612,Subduction zone / Oceanic crust (< 15 km),Andesite / Basaltic Andesite
290220,Rasshua,Russia,Northwest Pacific Volcanic Regions,Kuril Volcanic Arc,Stratovolcano,Eruption Observed,1957,47.77,153.02,956,Subduction zone / Oceanic crust (< 15 km),Andesite / Basaltic Andesite
382010,Fayal,Portugal,Atlantic Ocean Volcanic Regions,Azores-Terceira Rift Volcanic Province,Stratovolcano,Eruption Observed,1958,38.576,-28.713,1041,Rift zone / Oceanic crust (< 15 km),Andesite / Basaltic Andesite
284134,Kasuga 1,United States,Northwest Pacific Volcanic Regions,Mariana Volcanic Arc,Stratovolcano,Eruption Observed,1959,21.765,143.71,-598,Subduction zone / Crustal thickness unknown,Andesite / Basaltic Andesite
251010,Bam,Papua New Guinea,Southwest Pacific Volcanic Regions,Bismarck Volcanic Arc,Stratovolcano,Eruption Observed,1960,-3.613,144.818,685,Subduction zone / Continental crust (>25 km),Andesite / Basaltic Andesite
290200,Ketoi,Russia,Northwest Pacific Volcanic Regions,Kuril Volcanic Arc,Stratovolcano,Eruption Observed,1960,47.35,152.475,1172,Subduction zone / Oceanic crust (< 15 km),Andesite / Basaltic Andesite
355020,Guallatiri,Chile,South America Volcanic Regions,Central Andean Volcanic Arc,Stratovolcano,Eruption Observed,1960,-18.42,-69.092,6071,Subduction zone / Continental crust (>25 km),Andesite / Basaltic Andesite
357020,San Jose,Chile-Argentina,South America Volcanic Regions,Southern Andean Volcanic Arc,Stratovolcano(es),Eruption Observed,1960,-33.789,-69.895,6070,Subduction zone / Continental crust (>25 km),Andesite / Basaltic Andesite
373060,Askja,Iceland,Atlantic Ocean Volcanic Regions,Iceland Neovolcanic Rift Volcanic Province,Stratovolcano,Eruption Observed,1961,65.033,-16.783,1080,Rift zone / Oceanic crust (< 15 km),Basalt / Picro-Basalt
386010,Tristan da Cunha,United Kingdom,Atlantic Ocean Volcanic Regions,Southern Atlantic Volcano Group,Shield,Eruption Observed,1962,-37.092,-12.28,2060,Rift zone / Oceanic crust (< 15 km),Trachybasalt / Tephrite Basanite
390140,Protector Seamounts,United Kingdom,Antarctic-Scotia Volcanic Regions,South Sandwich Volcanic Arc,Volcanic field,Eruption Observed,1962,-55.912,-28.167,-55,Subduction zone / Oceanic crust (< 15 km),Rhyolite
283150,Nasudake,Japan,Northwest Pacific Volcanic Regions,Northeast Japan Volcanic Arc,Stratovolcano(es),Eruption Observed,1963,37.125,139.963,1915,Subduction zone / Continental crust (>25 km),Andesite / Basaltic Andesite
257010,Suretamatai,Vanuatu,Southwest Pacific Volcanic Regions,Vanuatu Volcanic Arc,Complex,Eruption Observed,1966,-13.8,167.47,921,Subduction zone / Intermediate crust (15-25 km),Andesite / Basaltic Andesite
343030,Izalco,El Salvador,Middle America-Caribbean Volcanic Regions,Central America Volcanic Arc,Stratovolcano,Eruption Observed,1966,13.813,-89.633,1950,Subduction zone / Continental crust (>25 km),Andesite / Basaltic Andesite
264040,Tambora,Indonesia,Sunda-Banda Volcanic Regions,Sunda Volcanic Arc,Stratovolcano,Eruption Observed,1967,-8.25,118,2850,Subduction zone / Continental crust (>25 km),Trachybasalt / Tephrite Basanite
357060,"Azul, Cerro",Chile,South America Volcanic Regions,Southern Andean Volcanic Arc,Stratovolcano,Eruption Observed,1967,-35.653,-70.761,3788,Subduction zone / Continental crust (>25 km),Dacite
264140,Kelimutu,Indonesia,Sunda-Banda Volcanic Regions,Sunda Volcanic Arc,Complex,Eruption Observed,1968,-8.77,121.82,1639,Subduction zone / Crustal thickness unknown,Andesite / Basaltic Andesite
265060,Nila,Indonesia,Sunda-Banda Volcanic Regions,Inner Banda Volcanic Arc,Stratovolcano,Eruption Observed,1968,-6.73,129.5,781,Subduction zone / Oceanic crust (< 15 km),Andesite / Basaltic Andesite
282020,Io-Torishima,Japan,Western Pacific Volcanic Regions,Ryukyu Volcanic Arc,Complex,Eruption Observed,1968,27.881,128.223,212,Subduction zone / Oceanic crust (< 15 km),Andesite / Basaltic Andesite
373050,Kverkfjoll,Iceland,Atlantic Ocean Volcanic Regions,Iceland Neovolcanic Rift Volcanic Province,Stratovolcano,Eruption Observed,1968,64.653,-16.647,1930,Rift zone / Oceanic crust (< 15 km),Basalt / Picro-Basalt
264100,Ebulobo,Indonesia,Sunda-Banda Volcanic Regions,Sunda Volcanic Arc,Stratovolcano,Eruption Observed,1969,-8.817,121.191,2096,Subduction zone / Crustal thickness unknown,Andesite / Basaltic Andesite
264110,Iya,Indonesia,Sunda-Banda Volcanic Regions,Sunda Volcanic Arc,Stratovolcano,Eruption Observed,1969,-8.891,121.641,618,Subduction zone / Crustal thickness unknown,Basalt / Picro-Basalt
334100,Southern EPR at 8°S,Undersea Features,Southern Pacific Volcanic Regions,Southern East Pacific Rise Volcanic Province,Fissure vent(s),Eruption Observed,1969,-8.27,-107.95,-2800,Rift zone / Oceanic crust (< 15 km),Basalt / Picro-Basalt
284070,Myojinsho,Japan,Northwest Pacific Volcanic Regions,Izu Volcanic Arc,Caldera,Eruption Observed,1970,31.888,139.918,11,Subduction zone / Oceanic crust (< 15 km),Dacite
333030,Moua Pihaa,France,Southern Pacific Volcanic Regions,Society Islands Hotspot Volcano Group,Stratovolcano,Eruption Dated,1970,-18.325,-148.525,-312,Intraplate / Oceanic crust (< 15 km),Trachybasalt / Tephrite Basanite
390030,Deception Island,Antarctica,Antarctic-Scotia Volcanic Regions,South Shetlands Volcanic Arc,Caldera,Eruption Observed,1970,-62.9567,-60.6367,602,Intraplate / Continental crust (>25 km),Basalt / Picro-Basalt
263210,Sundoro,Indonesia,Sunda-Banda Volcanic Regions,Sunda Volcanic Arc,Stratovolcano,Eruption Observed,1971,-7.302,109.996,3147,Subduction zone / Continental crust (>25 km),Andesite / Basaltic Andesite
283230,Akita-Komagatake,Japan,Northwest Pacific Volcanic Regions,Northeast Japan Volcanic Arc,Stratovolcano(es),Eruption Observed,1971,39.761,140.799,1637,Subduction zone / Continental crust (>25 km),Basalt / Picro-Basalt
250030,Central Bismarck Sea,Papua New Guinea,Southwest Pacific Volcanic Regions,Bismarck Sea Volcanic Province,Fissure vent,Eruption Dated,1972,-3.03,147.78,-1300,Rift zone / Continental crust (>25 km),No Data (checked)
290160,Unnamed,Russia,Northwest Pacific Volcanic Regions,Kuril Volcanic Arc,Stratovolcano,Eruption Dated,1972,46.47,151.28,-502,Subduction zone / Oceanic crust (< 15 km),No Data (checked)
333020,Rocard,France,Southern Pacific Volcanic Regions,Society Islands Hotspot Volcano Group,Cone,Eruption Dated,1972,-17.662,-148.586,-2515,Intraplate / Oceanic crust (< 15 km),Trachyte / Trachydacite
342080,Acatenango,Guatemala,Middle America-Caribbean Volcanic Regions,Central America Volcanic Arc,Stratovolcano(es),Eruption Observed,1972,14.501,-90.876,3976,Subduction zone / Continental crust (>25 km),Andesite / Basaltic Andesite
290120,Kolokol Group,Russia,Northwest Pacific Volcanic Regions,Kuril Volcanic Arc,Stratovolcano,Eruption Observed,1973,46.042,150.083,1328,Subduction zone / Intermediate crust (15-25 km),Andesite / Basaltic Andesite
372010,Vestmannaeyjar,Iceland,Atlantic Ocean Volcanic Regions,Iceland Neovolcanic Rift Volcanic Province,Fissure vent(s),Eruption Observed,1973,63.416,-20.266,283,Rift zone / Oceanic crust (< 15 km),Basalt / Picro-Basalt
257070,Kuwae,Vanuatu,Southwest Pacific Volcanic Regions,Vanuatu Volcanic Arc,Caldera,Eruption Observed,1974,-16.8304,168.5227,-2,Subduction zone / Intermediate crust (15-25 km),Basalt / Picro-Basalt
283220,Chokaisan,Japan,Northwest Pacific Volcanic Regions,Northeast Japan Volcanic Arc,Stratovolcano(es),Eruption Observed,1974,39.099,140.049,2236,Subduction zone / Continental crust (>25 km),Andesite / Basaltic Andesite
284133,Fukujin,United States,Northwest Pacific Volcanic Regions,Mariana Volcanic Arc,Stratovolcano,Eruption Observed,1974,21.93,143.47,-217,Subduction zone / Crustal thickness unknown,Andesite / Basaltic Andesite
312160,Trident,United States,North America Volcanic Regions,Alaska Peninsula Volcanic Arc,Stratovolcano,Eruption Observed,1974,58.236,-155.1,1864,Subduction zone / Continental crust (>25 km),Andesite / Basaltic Andesite
284131,Minami-Hiyoshi,Japan,Northwest Pacific Volcanic Regions,Mariana Volcanic Arc,Stratovolcano,Eruption Observed,1975,23.5,141.935,-107,Subduction zone / Crustal thickness unknown,Trachyandesite / Basaltic Trachyandesite
390070,Southern Thule,United Kingdom,Antarctic-Scotia Volcanic Regions,South Sandwich Volcanic Arc,Stratovolcano(es),Eruption Observed,1975,-59.442,-27.225,1075,Subduction zone / Oceanic crust (< 15 km),Andesite / Basaltic Andesite
266110,Mahawu,Indonesia,Western Pacific Volcanic Regions,Sangihe Volcanic Arc,Stratovolcano,Eruption Observed,1977,1.352,124.865,1299,Subduction zone / Continental crust (>25 km),Andesite / Basaltic Andesite
283180,Azumayama,Japan,Northwest Pacific Volcanic Regions,Northeast Japan Volcanic Arc,Stratovolcano(es),Eruption Observed,1977,37.735,140.244,1949,Subduction zone / Continental crust (>25 km),Andesite / Basaltic Andesite
312131,Ukinrek Maars,United States,North America Volcanic Regions,Alaska Peninsula Volcanic Arc,Maar(s),Eruption Observed,1977,57.8344,-156.5203,91,Subduction zone / Continental crust (>25 km),Basalt / Picro-Basalt
345060,Irazu,Costa Rica,Middle America-Caribbean Volcanic Regions,Central America Volcanic Arc,Stratovolcano,Eruption Observed,1977,9.979,-83.852,3436,Subduction zone / Continental crust (>25 km),Andesite / Basaltic Andesite
360060,Soufriere Guadeloupe,France,Middle America-Caribbean Volcanic Regions,Lesser Antilles Volcanic Arc,Stratovolcano,Eruption Observed,1977,16.044,-61.664,1467,Subduction zone / Oceanic crust (< 15 km),Andesite / Basaltic Andesite
221126,Ardoukoba,Djibouti,Eastern Africa Volcanic Regions,Afar Rift Volcanic Province,Fissure vent(s),Eruption Observed,1978,11.58,42.47,298,Rift zone / Intermediate crust (15-25 km),Basalt / Picro-Basalt
274020,Didicas,Philippines,Western Pacific Volcanic Regions,Luzon Volcanic Arc,Compound,Eruption Observed,1978,19.077,122.202,228,Subduction zone / Crustal thickness unknown,Andesite / Basaltic Andesite
243102,Curacoa,Tonga,Tonga-Kermadec Volcanic Regions,Tofua Volcanic Arc,Complex,Eruption Observed,1979,-15.62,-173.67,-33,Subduction zone / Oceanic crust (< 15 km),Dacite
251030,Karkar,Papua New Guinea,Southwest Pacific Volcanic Regions,Bismarck Volcanic Arc,Stratovolcano,Eruption Observed,1979,-4.647,145.976,1839,Subduction zone / Continental crust (>25 km),Andesite / Basaltic Andesite
357140,Carran-Los Venados,Chile,South America Volcanic Regions,Southern Andean Volcanic Arc,Pyroclastic cone(s),Eruption Observed,1979,-40.35,-72.07,1114,Subduction zone / Continental crust (>25 km),Basalt / Picro-Basalt
358060,Lautaro,Chile,South America Volcanic Regions,Austral Andean Volcanic Arc,Stratovolcano,Eruption Observed,1979,-49.019,-73.504,3542,Subduction zone / Continental crust (>25 km),Dacite
357091,Callaqui,Chile,South America Volcanic Regions,Southern Andean Volcanic Arc,Stratovolcano,Eruption Observed,1980,-37.92,-71.45,3164,Subduction zone / Continental crust (>25 km),Andesite / Basaltic Andesite
241050,Okataina,New Zealand,Tonga-Kermadec Volcanic Regions,Taupo Volcanic Arc,Lava dome(s),Eruption Observed,1981,-38.1569,176.5069,1111,Subduction zone / Continental crust (>25 km),Rhyolite
285040,Shikotsu,Japan,Northwest Pacific Volcanic Regions,Northeast Japan Volcanic Arc,Caldera,Eruption Observed,1981,42.688,141.38,1320,Subduction zone / Continental crust (>25 km),Andesite / Basaltic Andesite
290030,Chachadake [Tiatia],Japan - administered by Russia,Northwest Pacific Volcanic Regions,Kuril Volcanic Arc,Stratovolcano,Eruption Observed,1981,44.353,146.252,1822,Subduction zone / Intermediate crust (15-25 km),Basalt / Picro-Basalt
341120,"Chichon, El",Mexico,Middle America-Caribbean Volcanic Regions,Chiapanecan Volcanic Arc,Lava dome(s),Eruption Observed,1982,17.3602,-93.2297,1150,Subduction zone / Continental crust (>25 km),Trachyandesite / Basaltic Trachyandesite
266010,Colo,Indonesia,Western Pacific Volcanic Regions,Sangihe Volcanic Arc,Stratovolcano,Eruption Observed,1983,-0.162,121.601,404,Subduction zone / Continental crust (>25 km),Trachyandesite / Basaltic Trachyandesite
263140,Galunggung,Indonesia,Sunda-Banda Volcanic Regions,Sunda Volcanic Arc,Stratovolcano,Eruption Observed,1984,-7.25,108.058,2168,Subduction zone / Continental crust (>25 km),Basalt / Picro-Basalt
373080,Krafla,Iceland,Atlantic Ocean Volcanic Regions,Iceland Neovolcanic Rift Volcanic Province,Caldera,Eruption Observed,1984,65.715,-16.728,800,Rift zone / Oceanic crust (< 15 km),Basalt / Picro-Basalt
333010,Teahitia,France,Southern Pacific Volcanic Regions,Society Islands Hotspot Volcano Group,Compound,Eruption Dated,1985,-17.564,-148.821,-1743,Intraplate / Oceanic crust (< 15 km),Trachybasalt / Tephrite Basanite
354010,"Misti, El",Peru,South America Volcanic Regions,Central Andean Volcanic Arc,Stratovolcano,Eruption Observed,1985,-16.294,-71.409,5822,Subduction zone / Continental crust (>25 km),Andesite / Basaltic Andesite
376010,Jan Mayen,Norway,Atlantic Ocean Volcanic Regions,Arctic Ridge Volcanic Province,Stratovolcano,Eruption Observed,1985,71.082,-8.155,2197,Rift zone / Oceanic crust (< 15 km),Basalt / Picro-Basalt
261120,Sorikmarapi,Indonesia,Sunda-Banda Volcanic Regions,Sunda Volcanic Arc,Stratovolcano,Eruption Observed,1986,0.686,99.539,2145,Subduction zone / Continental crust (>25 km),Andesite / Basaltic Andesite
331030,Cleft Segment,Undersea Features,Eastern Pacific Volcanic Regions,Northeast Pacific Rifts Volcanic Province,Fissure vent(s),Eruption Observed,1986,44.83,-130.3,-2140,Rift zone / Oceanic crust (< 15 km),Basalt / Picro-Basalt
341130,Tacana,Mexico-Guatemala,Middle America-Caribbean Volcanic Regions,Central America Volcanic Arc,Stratovolcano,Eruption Observed,1986,15.132,-92.109,4064,Subduction zone / Continental crust (>25 km),Andesite / Basaltic Andesite
357010,Tupungatito,Chile-Argentina,South America Volcanic Regions,Southern Andean Volcanic Arc,Stratovolcano,Eruption Observed,1987,-33.425,-69.797,5660,Subduction zone / Continental crust (>25 km),Andesite / Basaltic Andesite
265090,Banda Api,Indonesia,Sunda-Banda Volcanic Regions,Inner Banda Volcanic Arc,Caldera,Eruption Observed,1988,-4.523,129.881,596,Subduction zone / Oceanic crust (< 15 km),Dacite
268070,Kie Besi,Indonesia,Western Pacific Volcanic Regions,Halmahera Volcanic Arc,Stratovolcano,Eruption Observed,1988,0.32,127.4,1357,Subduction zone / Oceanic crust (< 15 km),Andesite / Basaltic Andesite
283010,Izu-Tobu,Japan,Northwest Pacific Volcanic Regions,Izu Volcanic Arc,Pyroclastic cone(s),Eruption Observed,1989,34.9,139.098,1406,Subduction zone / Continental crust (>25 km),Basalt / Picro-Basalt
311070,Gareloi,United States,North America Volcanic Regions,Aleutian Ridge Volcanic Arc,Stratovolcano,Eruption Observed,1989,51.79,-178.794,1573,Subduction zone / Intermediate crust (15-25 km),Basalt / Picro-Basalt
333060,Macdonald,France,Southern Pacific Volcanic Regions,Austral-Cook Hotspot Volcano Group,Shield,Eruption Observed,1989,-28.98,-140.25,-39,Intraplate / Oceanic crust (< 15 km),Basalt / Picro-Basalt
284010,Izu-Oshima,Japan,Northwest Pacific Volcanic Regions,Izu Volcanic Arc,Stratovolcano,Eruption Observed,1990,34.724,139.394,746,Subduction zone / Oceanic crust (< 15 km),Basalt / Picro-Basalt
311020,Kiska,United States,North America Volcanic Regions,Aleutian Ridge Volcanic Arc,Stratovolcano,Eruption Observed,1990,52.103,177.602,1220,Subduction zone / Intermediate crust (15-25 km),Andesite / Basaltic Andesite
334120,Southern EPR at 17.5°S (Segment K),Undersea Features,Southern Pacific Volcanic Regions,Southern East Pacific Rise Volcanic Province,Fissure vent(s),Eruption Observed,1990,-17.436,-113.206,-2566,Rift zone / Oceanic crust (< 15 km),Basalt / Picro-Basalt
357100,Lonquimay,Chile,South America Volcanic Regions,Southern Andean Volcanic Arc,Stratovolcano,Eruption Observed,1990,-38.379,-71.586,2832,Subduction zone / Continental crust (>25 km),Andesite / Basaltic Andesite
264071,Ranakah,Indonesia,Sunda-Banda Volcanic Regions,Sunda Volcanic Arc,Lava dome(s),Eruption Observed,1991,-8.637,120.5302,2288,Subduction zone / Continental crust (>25 km),Andesite / Basaltic Andesite
353080,Marchena,Ecuador,Eastern Pacific Volcanic Regions,Galapagos Hotspot Volcano Group,Shield,Eruption Observed,1991,0.33,-90.47,343,Rift zone / Oceanic crust (< 15 km),Basalt / Picro-Basalt
311320,Akutan,United States,North America Volcanic Regions,Aleutian Ridge Volcanic Arc,Stratovolcano,Eruption Observed,1992,54.134,-165.986,1303,Subduction zone / Intermediate crust (15-25 km),Basalt / Picro-Basalt
311340,Westdahl,United States,North America Volcanic Regions,Aleutian Ridge Volcanic Arc,Stratovolcano?,Eruption Observed,1992,54.516,-164.65,1563,Subduction zone / Continental crust (>25 km),Basalt / Picro-Basalt
313040,Spurr,United States,North America Volcanic Regions,Alaska Peninsula Volcanic Arc,Stratovolcano,Eruption Observed,1992,61.299,-152.251,3374,Subduction zone / Continental crust (>25 km),Andesite / Basaltic Andesite
251050,Long Island,Papua New Guinea,Southwest Pacific Volcanic Regions,Bismarck Volcanic Arc,Complex,Eruption Observed,1993,-5.358,147.12,1280,Subduction zone / Continental crust (>25 km),Andesite / Basaltic Andesite
264220,Iliboleng,Indonesia,Sunda-Banda Volcanic Regions,Sunda Volcanic Arc,Stratovolcano,Eruption Observed,1993,-8.342,123.258,1659,Subduction zone / Crustal thickness unknown,Basalt / Picro-Basalt
311180,Seguam,United States,North America Volcanic Regions,Aleutian Ridge Volcanic Arc,Stratovolcano(es),Eruption Observed,1993,52.315,-172.51,1054,Subduction zone / Intermediate crust (15-25 km),Andesite / Basaltic Andesite
331020,CoAxial Segment,Undersea Features,Eastern Pacific Volcanic Regions,Northeast Pacific Rifts Volcanic Province,Fissure vent(s),Eruption Observed,1993,46.52,-129.58,-2400,Rift zone / Oceanic crust (< 15 km),Basalt / Picro-Basalt
353040,Alcedo,Ecuador,Eastern Pacific Volcanic Regions,Galapagos Hotspot Volcano Group,Shield,Eruption Observed,1993,-0.43,-91.12,1130,Rift zone / Oceanic crust (< 15 km),Basalt / Picro-Basalt
341021,Socorro,Mexico,Eastern Pacific Volcanic Regions,Mathematicians Ridge Volcanic Province,Shield,Eruption Observed,1994,18.78,-110.95,1050,Rift zone / Oceanic crust (< 15 km),Trachyte / Trachydacite
234000,Boomerang Seamount,France,Somalian-Antarctic Volcanic Regions,Amsterdam-St. Paul Hotspot Volcano Group,Caldera,Eruption Dated,1995,-37.7216,77.8221,-650,Rift zone / Oceanic crust (< 15 km),Basalt / Picro-Basalt
283070,Yakedake,Japan,Western Pacific Volcanic Regions,Nankai Volcanic Arc,Stratovolcano(es),Eruption Observed,1995,36.227,137.587,2455,Subduction zone / Continental crust (>25 km),Andesite / Basaltic Andesite
311310,Makushin,United States,North America Volcanic Regions,Aleutian Ridge Volcanic Arc,Stratovolcano,Eruption Observed,1995,53.891,-166.923,1800,Subduction zone / Intermediate crust (15-25 km),Andesite / Basaltic Andesite
355040,Irruputuncu,Chile-Bolivia,South America Volcanic Regions,Central Andean Volcanic Arc,Stratovolcano,Eruption Observed,1995,-20.73,-68.55,5163,Subduction zone / Continental crust (>25 km),Andesite / Basaltic Andesite
258001,Gemini-Oscostar,Vanuatu,Southwest Pacific Volcanic Regions,Vanuatu Volcanic Arc,Stratovolcano,Eruption Observed,1996,-20.957,170.13,-33,Rift zone / Oceanic crust (< 15 km),Basalt / Picro-Basalt
282100,Unzendake,Japan,Western Pacific Volcanic Regions,Nankai Volcanic Arc,Complex,Eruption Observed,1996,32.761,130.299,1483,Subduction zone / Continental crust (>25 km),Andesite / Basaltic Andesite
282120,Kujusan,Japan,Western Pacific Volcanic Regions,Nankai Volcanic Arc,Stratovolcano(es),Eruption Observed,1996,33.086,131.249,1791,Subduction zone / Continental crust (>25 km),Andesite / Basaltic Andesite
283170,Adatarayama,Japan,Northwest Pacific Volcanic Regions,Northeast Japan Volcanic Arc,Stratovolcano(es),Eruption Observed,1996,37.647,140.281,1728,Subduction zone / Continental crust (>25 km),Andesite / Basaltic Andesite
300125,Akademia Nauk,Russia,Northwest Pacific Volcanic Regions,Eastern Kamchatka Volcanic Arc,Stratovolcano(es),Eruption Observed,1996,53.98,159.45,1180,Subduction zone / Continental crust (>25 km),Andesite / Basaltic Andesite
331031,North Gorda Ridge Segment,United States,Eastern Pacific Volcanic Regions,Northeast Pacific Rifts Volcanic Province,Fissure vent(s),Eruption Observed,1996,42.67,-126.78,-3000,Rift zone / Oceanic crust (< 15 km),Basalt / Picro-Basalt
332000,Kama'ehuakanaloa,United States,Eastern Pacific Volcanic Regions,Hawaiian-Emperor Hotspot Volcano Group,Shield,Eruption Observed,1996,18.92,-155.27,-975,Intraplate / Oceanic crust (< 15 km),Basalt / Picro-Basalt
334070,Galapagos Rift,Ecuador,Eastern Pacific Volcanic Regions,Galapagos Rift Volcanic Province,Fissure vent(s),Eruption Observed,1996,0.792,-86.15,-2430,Rift zone / Oceanic crust (< 15 km),Basalt / Picro-Basalt
283260,Akita-Yakeyama,Japan,Northwest Pacific Volcanic Regions,Northeast Japan Volcanic Arc,Stratovolcano,Eruption Observed,1997,39.964,140.757,1366,Subduction zone / Continental crust (>25 km),Andesite / Basaltic Andesite
311190,Amukta,United States,North America Volcanic Regions,Aleutian Ridge Volcanic Arc,Stratovolcano,Eruption Observed,1997,52.5,-171.252,1066,Subduction zone / Intermediate crust (15-25 km),Andesite / Basaltic Andesite
360101,"Watt, Morne",Dominica,Middle America-Caribbean Volcanic Regions,Lesser Antilles Volcanic Arc,Stratovolcano(es),Eruption Observed,1997,15.307,-61.305,1224,Subduction zone / Oceanic crust (< 15 km),Andesite / Basaltic Andesite
283090,Niigata-Yakeyama,Japan,Northwest Pacific Volcanic Regions,Northeast Japan Volcanic Arc,Lava dome,Eruption Observed,1998,36.921,138.036,2400,Subduction zone / Continental crust (>25 km),Andesite / Basaltic Andesite
312110,Chiginagak,United States,North America Volcanic Regions,Alaska Peninsula Volcanic Arc,Stratovolcano,Eruption Observed,1998,57.135,-156.99,2221,Subduction zone / Continental crust (>25 km),Andesite / Basaltic Andesite
263350,Ijen,Indonesia,Sunda-Banda Volcanic Regions,Sunda Volcanic Arc,Stratovolcano(es),Eruption Observed,1999,-8.058,114.242,2769,Subduction zone / Continental crust (>25 km),Andesite / Basaltic Andesite
290100,Moyorodake [Medvezhia],Japan - administered by Russia,Northwest Pacific Volcanic Regions,Kuril Volcanic Arc,Stratovolcano,Eruption Observed,1999,45.389,148.838,1124,Subduction zone / Intermediate crust (15-25 km),Andesite / Basaltic Andesite
344070,"Negro, Cerro",Nicaragua,Middle America-Caribbean Volcanic Regions,Central America Volcanic Arc,Pyroclastic cone(s),Eruption Observed,1999,12.506,-86.702,728,Subduction zone / Continental crust (>25 km),Basalt / Picro-Basalt
377020,East Gakkel Ridge at 85°E,Undersea Features,Atlantic Ocean Volcanic Regions,Arctic Ridge Volcanic Province,Fissure vent,Evidence Credible,1999,85.608,85.25,-3800,Rift zone / Oceanic crust (< 15 km),No Data (checked)
224010,Cameroon,Cameroon,Northern Africa Volcanic Regions,Cameroon Hotspot Volcano Group,Stratovolcano,Eruption Observed,2000,4.203,9.17,4095,Intraplate / Continental crust (>25 km),Trachybasalt / Tephrite Basanite
261030,Peuet Sague,Indonesia,Sunda-Banda Volcanic Regions,Sunda Volcanic Arc,Complex,Eruption Observed,2000,4.903,96.289,2785,Subduction zone / Continental crust (>25 km),Andesite / Basaltic Andesite
261220,Kaba,Indonesia,Sunda-Banda Volcanic Regions,Sunda Volcanic Arc,Stratovolcano,Eruption Observed,2000,-3.522,102.615,1940,Subduction zone / Continental crust (>25 km),Andesite / Basaltic Andesite
264010,Batur,Indonesia,Sunda-Banda Volcanic Regions,Sunda Volcanic Arc,Caldera,Eruption Observed,2000,-8.2403,115.3775,1711,Subduction zone / Continental crust (>25 km),Andesite / Basaltic Andesite
285020,Hokkaido-Komagatake,Japan,Northwest Pacific Volcanic Regions,Northeast Japan Volcanic Arc,Stratovolcano,Eruption Observed,2000,42.063,140.677,1131,Subduction zone / Continental crust (>25 km),Andesite / Basaltic Andesite
300060,Mutnovsky,Russia,Northwest Pacific Volcanic Regions,Kuril Volcanic Arc,Complex,Eruption Observed,2000,52.449,158.196,2288,Subduction zone / Continental crust (>25 km),Basalt / Picro-Basalt
372070,Hekla,Iceland,Atlantic Ocean Volcanic Regions,Iceland Neovolcanic Rift Volcanic Province,Stratovolcano,Eruption Observed,2000,63.983,-19.666,1490,Rift zone / Oceanic crust (< 15 km),Andesite / Basaltic Andesite
382050,Terceira,Portugal,Atlantic Ocean Volcanic Regions,Azores-Terceira Rift Volcanic Province,Stratovolcano(es),Eruption Observed,2000,38.73,-27.32,1023,Rift zone / Oceanic crust (< 15 km),Basalt / Picro-Basalt
264090,Inielika,Indonesia,Sunda-Banda Volcanic Regions,Sunda Volcanic Arc,Complex,Eruption Observed,2001,-8.73,120.98,1559,Subduction zone / Crustal thickness unknown,Andesite / Basaltic Andesite
285030,Toya,Japan,Northwest Pacific Volcanic Regions,Northeast Japan Volcanic Arc,Stratovolcano,Eruption Observed,2001,42.544,140.839,733,Subduction zone / Continental crust (>25 km),Basalt / Picro-Basalt
300100,Avachinsky,Russia,Northwest Pacific Volcanic Regions,Eastern Kamchatka Volcanic Arc,Stratovolcano,Eruption Observed,2001,53.256,158.836,2717,Subduction zone / Continental crust (>25 km),Andesite / Basaltic Andesite
263100,Papandayan,Indonesia,Sunda-Banda Volcanic Regions,Sunda Volcanic Arc,Stratovolcano(es),Eruption Observed,2002,-7.32,107.73,2665,Subduction zone / Continental crust (>25 km),Andesite / Basaltic Andesite
284090,Izu-Torishima,Japan,Northwest Pacific Volcanic Regions,Izu Volcanic Arc,Stratovolcano,Eruption Observed,2002,30.484,140.303,394,Subduction zone / Oceanic crust (< 15 km),Basalt / Picro-Basalt
352020,Guagua Pichincha,Ecuador,South America Volcanic Regions,Northern Andean Volcanic Arc,Stratovolcano,Eruption Observed,2002,-0.171,-78.598,4784,Subduction zone / Continental crust (>25 km),Andesite / Basaltic Andesite
385052,Walvis Ridge at 33°S,Undersea Features,Atlantic Ocean Volcanic Regions,Southern Atlantic Volcano Group,Cone,Eruption Observed,2002,-32.958,-5.22,-1200,Intraplate / Oceanic crust (< 15 km),No Data (checked)
244000,Vailulu'u,United States,Southern Pacific Volcanic Regions,Samoan Hotspot Volcano Group,Shield,Eruption Observed,2003,-14.215,-169.058,-592,Subduction zone / Oceanic crust (< 15 km),Basalt / Picro-Basalt
